[
  {
    "id": "21325",
    "text": "Bielany Wrocławskie, gm. Kobierzyce, wrocławski, Dolnośląskie",
    "text_simple": "Bielany Wrocławskie",
    "text_gray": "wrocławski",
    "lon": "16.97184",
    "lat": "51.03923",
    "zoom": "12",
    "url": "bielany-wroclawskie",
    "districts": [],
    "label": "Bielany Wrocławskie"
  },
  {
    "id": "3197",
    "text": "Bielawa, dzierżoniowski, Dolnośląskie",
    "text_simple": "Bielawa",
    "text_gray": "dzierżoniowski",
    "lon": "16.63944",
    "lat": "50.64583",
    "zoom": "12",
    "url": "bielawa",
    "districts": [],
    "label": "Bielawa"
  },
  {
    "id": "24357",
    "text": "Bierutów, oleśnicki, Dolnośląskie",
    "text_simple": "Bierutów",
    "text_gray": "oleśnicki",
    "lon": "17.54827",
    "lat": "51.12414",
    "zoom": "12",
    "url": "bierutow",
    "districts": [],
    "label": "Bierutów"
  },
  {
    "id": "545",
    "city_id": "24495",
    "text": "Bogatynia, Centrum",
    "text_district": "Centrum",
    "text_gray": "",
    "lon": "14.95679",
    "lat": "50.90693",
    "zoom": 13,
    "label": "Bogatynia, Centrum"
  },
  {
    "id": "547",
    "city_id": "24495",
    "text": "Bogatynia, Markocice",
    "text_district": "Markocice",
    "text_gray": "",
    "lon": "14.95679",
    "lat": "50.90693",
    "zoom": 13,
    "label": "Bogatynia, Markocice"
  },
  {
    "id": "413",
    "city_id": "24495",
    "text": "Bogatynia, Zatonie",
    "text_district": "Zatonie",
    "text_gray": "",
    "lon": "14.95655",
    "lat": "50.91416",
    "zoom": 13,
    "label": "Bogatynia, Zatonie"
  },
  {
    "id": "549",
    "city_id": "24495",
    "text": "Bogatynia, Zatonie-Kolonia",
    "text_district": "Zatonie-Kolonia",
    "text_gray": "",
    "lon": "14.95679",
    "lat": "50.90693",
    "zoom": 13,
    "label": "Bogatynia, Zatonie-Kolonia"
  },
  {
    "id": "42471",
    "text": "Boguszów-Gorce, wałbrzyski, Dolnośląskie",
    "text_simple": "Boguszów-Gorce",
    "text_gray": "wałbrzyski",
    "lon": "16.16241",
    "lat": "50.78269",
    "zoom": "12",
    "url": "boguszow-gorce",
    "districts": [],
    "label": "Boguszów-Gorce"
  },
  {
    "id": "24545",
    "text": "Bolesławiec, bolesławiecki, Dolnośląskie",
    "text_simple": "Bolesławiec",
    "text_gray": "bolesławiecki",
    "lon": "15.56956",
    "lat": "51.26247",
    "zoom": "12",
    "url": "boleslawiec",
    "districts": [],
    "label": "Bolesławiec"
  },
  {
    "id": "130753",
    "text": "Bolków, jaworski, Dolnośląskie",
    "text_simple": "Bolków",
    "text_gray": "jaworski",
    "lon": "16.10417",
    "lat": "50.92335",
    "zoom": "12",
    "url": "bolkow_130753",
    "districts": [],
    "label": "Bolków"
  },
  {
    "id": "24811",
    "text": "Brzeg Dolny, wołowski, Dolnośląskie",
    "text_simple": "Brzeg Dolny",
    "text_gray": "wołowski",
    "lon": "16.72659",
    "lat": "51.26865",
    "zoom": "12",
    "url": "brzeg-dolny",
    "districts": [],
    "label": "Brzeg Dolny"
  },
  {
    "id": "25263",
    "text": "Bystrzyca Kłodzka, kłodzki, Dolnośląskie",
    "text_simple": "Bystrzyca Kłodzka",
    "text_gray": "kłodzki",
    "lon": "16.65185",
    "lat": "50.29572",
    "zoom": "12",
    "url": "bystrzyca-klodzka",
    "districts": [],
    "label": "Bystrzyca Kłodzka"
  },
  {
    "id": "112893",
    "text": "Chocianów, polkowicki, Dolnośląskie",
    "text_simple": "Chocianów",
    "text_gray": "polkowicki",
    "lon": "15.90689",
    "lat": "51.41816",
    "zoom": "12",
    "url": "chocianow",
    "districts": [],
    "label": "Chocianów"
  },
  {
    "id": "131601",
    "text": "Chojnów, legnicki, Dolnośląskie",
    "text_simple": "Chojnów",
    "text_gray": "legnicki",
    "lon": "15.93766",
    "lat": "51.27107",
    "zoom": "12",
    "url": "chojnow",
    "districts": [],
    "label": "Chojnów"
  },
  {
    "id": "113863",
    "text": "Dobroszyce, oleśnicki, Dolnośląskie",
    "text_simple": "Dobroszyce",
    "text_gray": "oleśnicki",
    "lon": "17.34280",
    "lat": "51.26438",
    "zoom": "12",
    "url": "dobroszyce",
    "districts": [],
    "label": "Dobroszyce"
  },
  {
    "id": "5161",
    "text": "Dobrzykowice, wrocławski, Dolnośląskie",
    "text_simple": "Dobrzykowice",
    "text_gray": "wrocławski",
    "lon": "17.19476",
    "lat": "51.09331",
    "zoom": "12",
    "url": "dobrzykowice",
    "districts": [],
    "label": "Dobrzykowice"
  },
  {
    "id": "113915",
    "text": "Domaszczyn, wrocławski, Dolnośląskie",
    "text_simple": "Domaszczyn",
    "text_gray": "wrocławski",
    "lon": "17.16697",
    "lat": "51.18746",
    "zoom": "12",
    "url": "domaszczyn",
    "districts": [],
    "label": "Domaszczyn"
  },
  {
    "id": "114055",
    "text": "Duszniki-Zdrój, kłodzki, Dolnośląskie",
    "text_simple": "Duszniki-Zdrój",
    "text_gray": "kłodzki",
    "lon": "16.39304",
    "lat": "50.40317",
    "zoom": "12",
    "url": "duszniki-zdroj",
    "districts": [],
    "label": "Duszniki-Zdrój"
  },
  {
    "id": "26541",
    "text": "Dzierżoniów, dzierżoniowski, Dolnośląskie",
    "text_simple": "Dzierżoniów",
    "text_gray": "dzierżoniowski",
    "lon": "16.65407",
    "lat": "50.72623",
    "zoom": "12",
    "url": "dzierzoniow",
    "districts": [],
    "label": "Dzierżoniów"
  },
  {
    "id": "44167",
    "text": "Długołęka, wrocławski, Dolnośląskie",
    "text_simple": "Długołęka",
    "text_gray": "wrocławski",
    "lon": "17.19325",
    "lat": "51.17672",
    "zoom": "12",
    "url": "dlugoleka_44167",
    "districts": [],
    "label": "Długołęka"
  },
  {
    "id": "44759",
    "text": "Gaworzyce, polkowicki, Dolnośląskie",
    "text_simple": "Gaworzyce",
    "text_gray": "polkowicki",
    "lon": "15.88289",
    "lat": "51.62724",
    "zoom": "12",
    "url": "gaworzyce",
    "districts": [],
    "label": "Gaworzyce"
  },
  {
    "id": "133971",
    "text": "Gryfów Śląski, lwówecki, Dolnośląskie",
    "text_simple": "Gryfów Śląski",
    "text_gray": "lwówecki",
    "lon": "15.41858",
    "lat": "51.03206",
    "zoom": "12",
    "url": "gryfow-slaski",
    "districts": [],
    "label": "Gryfów Śląski"
  },
  {
    "id": "85541",
    "text": "Góra, górowski, Dolnośląskie",
    "text_simple": "Góra",
    "text_gray": "górowski",
    "lon": "16.54273",
    "lat": "51.66739",
    "zoom": "12",
    "url": "gora",
    "districts": [],
    "label": "Góra"
  },
  {
    "id": "27191",
    "text": "Głogów, głogowski, Dolnośląskie",
    "text_simple": "Głogów",
    "text_gray": "głogowski",
    "lon": "16.08749",
    "lat": "51.66277",
    "zoom": "12",
    "url": "glogow",
    "districts": [],
    "label": "Głogów"
  },
  {
    "id": "81091",
    "text": "Głuszyca, wałbrzyski, Dolnośląskie",
    "text_simple": "Głuszyca",
    "text_gray": "wałbrzyski",
    "lon": "16.37167",
    "lat": "50.68618",
    "zoom": "12",
    "url": "gluszyca",
    "districts": [],
    "label": "Głuszyca"
  },
  {
    "id": "64413",
    "text": "Jawor, jaworski, Dolnośląskie",
    "text_simple": "Jawor",
    "text_gray": "jaworski",
    "lon": "16.19509",
    "lat": "51.05265",
    "zoom": "12",
    "url": "jawor",
    "districts": [],
    "label": "Jawor"
  },
  {
    "id": "46225",
    "text": "Jaworzyna Śląska, świdnicki, Dolnośląskie",
    "text_simple": "Jaworzyna Śląska",
    "text_gray": "świdnicki",
    "lon": "16.43176",
    "lat": "50.91105",
    "zoom": "12",
    "url": "jaworzyna-slaska",
    "districts": [],
    "label": "Jaworzyna Śląska"
  },
  {
    "id": "7249",
    "text": "Jedlina-Zdrój, wałbrzyski, Dolnośląskie",
    "text_simple": "Jedlina-Zdrój",
    "text_gray": "wałbrzyski",
    "lon": "16.34809",
    "lat": "50.71969",
    "zoom": "12",
    "url": "jedlina-zdroj",
    "districts": [],
    "label": "Jedlina-Zdrój"
  },
  {
    "id": "64467",
    "text": "Jelcz-Laskowice, oławski, Dolnośląskie",
    "text_simple": "Jelcz-Laskowice",
    "text_gray": "oławski",
    "lon": "17.35150",
    "lat": "51.03863",
    "zoom": "12",
    "url": "jelcz-laskowice",
    "districts": [],
    "label": "Jelcz-Laskowice"
  },
  {
    "id": "561",
    "city_id": "7257",
    "text": "Jelenia Góra, Centrum",
    "text_district": "Centrum",
    "text_gray": "",
    "lon": "15.73459",
    "lat": "50.85134",
    "zoom": 13,
    "label": "Jelenia Góra, Centrum"
  },
  {
    "id": "199",
    "city_id": "7257",
    "text": "Jelenia Góra, Cieplice Śląskie-Zdrój",
    "text_district": "Cieplice Śląskie-Zdrój",
    "text_gray": "",
    "lon": "15.62921",
    "lat": "50.86489",
    "zoom": 13,
    "label": "Jelenia Góra, Cieplice Śląskie-Zdrój"
  },
  {
    "id": "557",
    "city_id": "7257",
    "text": "Jelenia Góra, Czarne",
    "text_district": "Czarne",
    "text_gray": "",
    "lon": "15.73459",
    "lat": "50.85133",
    "zoom": 13,
    "label": "Jelenia Góra, Czarne"
  },
  {
    "id": "507",
    "city_id": "7257",
    "text": "Jelenia Góra, Goduszyn",
    "text_district": "Goduszyn",
    "text_gray": "",
    "lon": "15.73459",
    "lat": "50.85133",
    "zoom": 13,
    "label": "Jelenia Góra, Goduszyn"
  },
  {
    "id": "201",
    "city_id": "7257",
    "text": "Jelenia Góra, Grabary",
    "text_district": "Grabary",
    "text_gray": "",
    "lon": "15.73459",
    "lat": "50.85133",
    "zoom": 13,
    "label": "Jelenia Góra, Grabary"
  },
  {
    "id": "585",
    "city_id": "7257",
    "text": "Jelenia Góra, Jagniątków",
    "text_district": "Jagniątków",
    "text_gray": "",
    "lon": "15.64142",
    "lat": "50.84163",
    "zoom": 13,
    "label": "Jelenia Góra, Jagniątków"
  },
  {
    "id": "675",
    "city_id": "7257",
    "text": "Jelenia Góra, Maciejowa",
    "text_district": "Maciejowa",
    "text_gray": "",
    "lon": "15.73459",
    "lat": "50.85133",
    "zoom": 13,
    "label": "Jelenia Góra, Maciejowa"
  },
  {
    "id": "559",
    "city_id": "7257",
    "text": "Jelenia Góra, Paulinum",
    "text_district": "Paulinum",
    "text_gray": "",
    "lon": "15.73459",
    "lat": "50.85134",
    "zoom": 13,
    "label": "Jelenia Góra, Paulinum"
  },
  {
    "id": "603",
    "city_id": "7257",
    "text": "Jelenia Góra, Sobieszów",
    "text_district": "Sobieszów",
    "text_gray": "",
    "lon": "15.64142",
    "lat": "50.84163",
    "zoom": 13,
    "label": "Jelenia Góra, Sobieszów"
  },
  {
    "id": "677",
    "city_id": "7257",
    "text": "Jelenia Góra, Strupice",
    "text_district": "Strupice",
    "text_gray": "",
    "lon": "15.73459",
    "lat": "50.85133",
    "zoom": 13,
    "label": "Jelenia Góra, Strupice"
  },
  {
    "id": "203",
    "city_id": "7257",
    "text": "Jelenia Góra, Zabobrze",
    "text_district": "Zabobrze",
    "text_gray": "",
    "lon": "15.72032",
    "lat": "50.86173",
    "zoom": 13,
    "label": "Jelenia Góra, Zabobrze"
  },
  {
    "id": "116001",
    "text": "Jeżów Sudecki, jeleniogórski, Dolnośląskie",
    "text_simple": "Jeżów Sudecki",
    "text_gray": "jeleniogórski",
    "lon": "15.74471",
    "lat": "50.93030",
    "zoom": "12",
    "url": "jezow-sudecki",
    "districts": [],
    "label": "Jeżów Sudecki"
  },
  {
    "id": "28625",
    "text": "Kamieniec Wrocławski, wrocławski, Dolnośląskie",
    "text_simple": "Kamieniec Wrocławski",
    "text_gray": "wrocławski",
    "lon": "17.17503",
    "lat": "51.07443",
    "zoom": "12",
    "url": "kamieniec-wroclawski",
    "districts": [],
    "label": "Kamieniec Wrocławski"
  },
  {
    "id": "7543",
    "text": "Kamieniec Ząbkowicki, ząbkowicki, Dolnośląskie",
    "text_simple": "Kamieniec Ząbkowicki",
    "text_gray": "ząbkowicki",
    "lon": "16.87799",
    "lat": "50.52397",
    "zoom": "12",
    "url": "kamieniec-zabkowicki",
    "districts": [],
    "label": "Kamieniec Ząbkowicki"
  },
  {
    "id": "64759",
    "text": "Kamienna Góra, kamiennogórski, Dolnośląskie",
    "text_simple": "Kamienna Góra",
    "text_gray": "kamiennogórski",
    "lon": "16.02750",
    "lat": "50.78363",
    "zoom": "12",
    "url": "kamienna-gora",
    "districts": [],
    "label": "Kamienna Góra"
  },
  {
    "id": "28743",
    "text": "Karpacz, jeleniogórski, Dolnośląskie",
    "text_simple": "Karpacz",
    "text_gray": "jeleniogórski",
    "lon": "15.78096",
    "lat": "50.79124",
    "zoom": "12",
    "url": "karpacz",
    "districts": [],
    "label": "Karpacz"
  },
  {
    "id": "135461",
    "text": "Kiełczów, wrocławski, Dolnośląskie",
    "text_simple": "Kiełczów",
    "text_gray": "wrocławski",
    "lon": "17.18042",
    "lat": "51.13963",
    "zoom": "12",
    "url": "kielczow",
    "districts": [],
    "label": "Kiełczów"
  },
  {
    "id": "65551",
    "text": "Kobierzyce, wrocławski, Dolnośląskie",
    "text_simple": "Kobierzyce",
    "text_gray": "wrocławski",
    "lon": "16.92863",
    "lat": "50.97148",
    "zoom": "12",
    "url": "kobierzyce",
    "districts": [],
    "label": "Kobierzyce"
  },
  {
    "id": "47913",
    "text": "Kowary, jeleniogórski, Dolnośląskie",
    "text_simple": "Kowary",
    "text_gray": "jeleniogórski",
    "lon": "15.83259",
    "lat": "50.79615",
    "zoom": "12",
    "url": "kowary",
    "districts": [],
    "label": "Kowary"
  },
  {
    "id": "66815",
    "text": "Kudowa-Zdrój, kłodzki, Dolnośląskie",
    "text_simple": "Kudowa-Zdrój",
    "text_gray": "kłodzki",
    "lon": "16.23916",
    "lat": "50.43492",
    "zoom": "12",
    "url": "kudowa-zdroj",
    "districts": [],
    "label": "Kudowa-Zdrój"
  },
  {
    "id": "116723",
    "text": "Kąty Wrocławskie, wrocławski, Dolnośląskie",
    "text_simple": "Kąty Wrocławskie",
    "text_gray": "wrocławski",
    "lon": "16.76905",
    "lat": "51.03076",
    "zoom": "12",
    "url": "katy-wroclawskie",
    "districts": [],
    "label": "Kąty Wrocławskie"
  },
  {
    "id": "47303",
    "text": "Kłodzko, kłodzki, Dolnośląskie",
    "text_simple": "Kłodzko",
    "text_gray": "kłodzki",
    "lon": "16.65733",
    "lat": "50.43437",
    "zoom": "12",
    "url": "klodzko",
    "districts": [],
    "label": "Kłodzko"
  },
  {
    "id": "9775",
    "text": "Legnica, Dolnośląskie",
    "text_simple": "Legnica",
    "text_gray": "Dolnośląskie",
    "lon": "16.15532",
    "lat": "51.20701",
    "zoom": "12",
    "url": "legnica",
    "districts": [],
    "label": "Legnica"
  },
  {
    "id": "9831",
    "text": "Leśna, lubański, Dolnośląskie",
    "text_simple": "Leśna",
    "text_gray": "lubański",
    "lon": "15.26358",
    "lat": "51.02356",
    "zoom": "12",
    "url": "lesna",
    "districts": [],
    "label": "Leśna"
  },
  {
    "id": "89413",
    "text": "Lubawka, kamiennogórski, Dolnośląskie",
    "text_simple": "Lubawka",
    "text_gray": "kamiennogórski",
    "lon": "16.00037",
    "lat": "50.70915",
    "zoom": "12",
    "url": "lubawka",
    "districts": [],
    "label": "Lubawka"
  },
  {
    "id": "89409",
    "text": "Lubań, lubański, Dolnośląskie",
    "text_simple": "Lubań",
    "text_gray": "lubański",
    "lon": "15.28880",
    "lat": "51.12389",
    "zoom": "12",
    "url": "luban",
    "districts": [],
    "label": "Lubań"
  },
  {
    "id": "10101",
    "text": "Lubin, lubiński, Dolnośląskie",
    "text_simple": "Lubin",
    "text_gray": "lubiński",
    "lon": "16.20152",
    "lat": "51.40026",
    "zoom": "12",
    "url": "lubin",
    "districts": [],
    "label": "Lubin"
  },
  {
    "id": "137531",
    "text": "Lubomierz, lwówecki, Dolnośląskie",
    "text_simple": "Lubomierz",
    "text_gray": "lwówecki",
    "lon": "15.50886",
    "lat": "51.01186",
    "zoom": "12",
    "url": "lubomierz_137531",
    "districts": [],
    "label": "Lubomierz"
  },
  {
    "id": "31345",
    "text": "Lwówek Śląski, lwówecki, Dolnośląskie",
    "text_simple": "Lwówek Śląski",
    "text_gray": "lwówecki",
    "lon": "15.58795",
    "lat": "51.11530",
    "zoom": "12",
    "url": "lwowek-slaski",
    "districts": [],
    "label": "Lwówek Śląski"
  },
  {
    "id": "118649",
    "text": "Lądek-Zdrój, kłodzki, Dolnośląskie",
    "text_simple": "Lądek-Zdrój",
    "text_gray": "kłodzki",
    "lon": "16.88544",
    "lat": "50.34309",
    "zoom": "12",
    "url": "ladek-zdroj",
    "districts": [],
    "label": "Lądek-Zdrój"
  },
  {
    "id": "11675",
    "text": "Milicz, milicki, Dolnośląskie",
    "text_simple": "Milicz",
    "text_gray": "milicki",
    "lon": "17.29526",
    "lat": "51.53363",
    "zoom": "12",
    "url": "milicz",
    "districts": [],
    "label": "Milicz"
  },
  {
    "id": "50701",
    "text": "Mirków, wrocławski, Dolnośląskie",
    "text_simple": "Mirków",
    "text_gray": "wrocławski",
    "lon": "17.15861",
    "lat": "51.16883",
    "zoom": "12",
    "url": "mirkow",
    "districts": [],
    "label": "Mirków"
  },
  {
    "id": "91001",
    "text": "Mirsk, lwówecki, Dolnośląskie",
    "text_simple": "Mirsk",
    "text_gray": "lwówecki",
    "lon": "15.38491",
    "lat": "50.96970",
    "zoom": "12",
    "url": "mirsk",
    "districts": [],
    "label": "Mirsk"
  },
  {
    "id": "11591",
    "text": "Międzybórz, oleśnicki, Dolnośląskie",
    "text_simple": "Międzybórz",
    "text_gray": "oleśnicki",
    "lon": "17.66683",
    "lat": "51.39850",
    "zoom": "12",
    "url": "miedzyborz",
    "districts": [],
    "label": "Międzybórz"
  },
  {
    "id": "69095",
    "text": "Mysłakowice, jeleniogórski, Dolnośląskie",
    "text_simple": "Mysłakowice",
    "text_gray": "jeleniogórski",
    "lon": "15.79054",
    "lat": "50.83606",
    "zoom": "12",
    "url": "myslakowice_69095",
    "districts": [],
    "label": "Mysłakowice"
  },
  {
    "id": "91415",
    "text": "Niemcza, dzierżoniowski, Dolnośląskie",
    "text_simple": "Niemcza",
    "text_gray": "dzierżoniowski",
    "lon": "16.83554",
    "lat": "50.72132",
    "zoom": "12",
    "url": "niemcza",
    "districts": [],
    "label": "Niemcza"
  },
  {
    "id": "12231",
    "text": "Nowa Ruda, kłodzki, Dolnośląskie",
    "text_simple": "Nowa Ruda",
    "text_gray": "kłodzki",
    "lon": "16.50470",
    "lat": "50.57929",
    "zoom": "12",
    "url": "nowa-ruda",
    "districts": [],
    "label": "Nowa Ruda"
  },
  {
    "id": "102907",
    "text": "Nowogrodziec, bolesławiecki, Dolnośląskie",
    "text_simple": "Nowogrodziec",
    "text_gray": "bolesławiecki",
    "lon": "15.39873",
    "lat": "51.19587",
    "zoom": "12",
    "url": "nowogrodziec",
    "districts": [],
    "label": "Nowogrodziec"
  },
  {
    "id": "69611",
    "text": "Oborniki Śląskie, trzebnicki, Dolnośląskie",
    "text_simple": "Oborniki Śląskie",
    "text_gray": "trzebnicki",
    "lon": "16.91428",
    "lat": "51.30076",
    "zoom": "12",
    "url": "oborniki-slaskie",
    "districts": [],
    "label": "Oborniki Śląskie"
  },
  {
    "id": "643",
    "city_id": "12623",
    "text": "Oleśnica, Lucień",
    "text_district": "Lucień",
    "text_gray": "",
    "lon": "17.39596",
    "lat": "51.21263",
    "zoom": 13,
    "label": "Oleśnica, Lucień"
  },
  {
    "id": "313",
    "city_id": "12623",
    "text": "Oleśnica, Oleśnica",
    "text_district": "Oleśnica",
    "text_gray": "",
    "lon": "17.39596",
    "lat": "51.21263",
    "zoom": 13,
    "label": "Oleśnica, Oleśnica"
  },
  {
    "id": "523",
    "city_id": "12623",
    "text": "Oleśnica, Rataje",
    "text_district": "Rataje",
    "text_gray": "",
    "lon": "17.39596",
    "lat": "51.21263",
    "zoom": 13,
    "label": "Oleśnica, Rataje"
  },
  {
    "id": "645",
    "city_id": "12623",
    "text": "Oleśnica, Wądoły",
    "text_district": "Wądoły",
    "text_gray": "",
    "lon": "17.39596",
    "lat": "51.21263",
    "zoom": 13,
    "label": "Oleśnica, Wądoły"
  },
  {
    "id": "92159",
    "text": "Olszyna, lubański, Dolnośląskie",
    "text_simple": "Olszyna",
    "text_gray": "lubański",
    "lon": "15.37864",
    "lat": "51.06475",
    "zoom": "12",
    "url": "olszyna_92159",
    "districts": [],
    "label": "Olszyna"
  },
  {
    "id": "12869",
    "text": "Oława, oławski, Dolnośląskie",
    "text_simple": "Oława",
    "text_gray": "oławski",
    "lon": "17.30294",
    "lat": "50.93848",
    "zoom": "12",
    "url": "olawa",
    "districts": [],
    "label": "Oława"
  },
  {
    "id": "52419",
    "text": "Piechowice, jeleniogórski, Dolnośląskie",
    "text_simple": "Piechowice",
    "text_gray": "jeleniogórski",
    "lon": "15.58627",
    "lat": "50.83331",
    "zoom": "12",
    "url": "piechowice_52419",
    "districts": [],
    "label": "Piechowice"
  },
  {
    "id": "70627",
    "text": "Pieszyce, dzierżoniowski, Dolnośląskie",
    "text_simple": "Pieszyce",
    "text_gray": "dzierżoniowski",
    "lon": "16.58306",
    "lat": "50.71119",
    "zoom": "12",
    "url": "pieszyce",
    "districts": [],
    "label": "Pieszyce"
  },
  {
    "id": "140635",
    "text": "Pieńsk, zgorzelecki, Dolnośląskie",
    "text_simple": "Pieńsk",
    "text_gray": "zgorzelecki",
    "lon": "15.04818",
    "lat": "51.24663",
    "zoom": "12",
    "url": "piensk",
    "districts": [],
    "label": "Pieńsk"
  },
  {
    "id": "122481",
    "text": "Piława Górna, dzierżoniowski, Dolnośląskie",
    "text_simple": "Piława Górna",
    "text_gray": "dzierżoniowski",
    "lon": "16.74736",
    "lat": "50.68245",
    "zoom": "12",
    "url": "pilawa-gorna",
    "districts": [],
    "label": "Piława Górna"
  },
  {
    "id": "104381",
    "text": "Polanica-Zdrój, kłodzki, Dolnośląskie",
    "text_simple": "Polanica-Zdrój",
    "text_gray": "kłodzki",
    "lon": "16.51282",
    "lat": "50.40346",
    "zoom": "12",
    "url": "polanica-zdroj",
    "districts": [],
    "label": "Polanica-Zdrój"
  },
  {
    "id": "141033",
    "text": "Polkowice, polkowicki, Dolnośląskie",
    "text_simple": "Polkowice",
    "text_gray": "polkowicki",
    "lon": "16.07030",
    "lat": "51.50341",
    "zoom": "12",
    "url": "polkowice",
    "districts": [],
    "label": "Polkowice"
  },
  {
    "id": "71525",
    "text": "Prochowice, legnicki, Dolnośląskie",
    "text_simple": "Prochowice",
    "text_gray": "legnicki",
    "lon": "16.36554",
    "lat": "51.27269",
    "zoom": "12",
    "url": "prochowice",
    "districts": [],
    "label": "Prochowice"
  },
  {
    "id": "104981",
    "text": "Prusice, trzebnicki, Dolnośląskie",
    "text_simple": "Prusice",
    "text_gray": "trzebnicki",
    "lon": "16.96239",
    "lat": "51.37169",
    "zoom": "12",
    "url": "prusice",
    "districts": [],
    "label": "Prusice"
  },
  {
    "id": "53487",
    "text": "Przemków, polkowicki, Dolnośląskie",
    "text_simple": "Przemków",
    "text_gray": "polkowicki",
    "lon": "15.78884",
    "lat": "51.52680",
    "zoom": "12",
    "url": "przemkow",
    "districts": [],
    "label": "Przemków"
  },
  {
    "id": "35625",
    "text": "Radwanice, polkowicki, Dolnośląskie",
    "text_simple": "Radwanice",
    "text_gray": "polkowicki",
    "lon": "15.94651",
    "lat": "51.56336",
    "zoom": "12",
    "url": "radwanice",
    "districts": [],
    "label": "Radwanice"
  },
  {
    "id": "105755",
    "text": "Ruszowice, głogowski, Dolnośląskie",
    "text_simple": "Ruszowice",
    "text_gray": "głogowski",
    "lon": "16.08257",
    "lat": "51.64345",
    "zoom": "12",
    "url": "ruszowice_105755",
    "districts": [],
    "label": "Ruszowice"
  },
  {
    "id": "54553",
    "text": "Siechnice, wrocławski, Dolnośląskie",
    "text_simple": "Siechnice",
    "text_gray": "wrocławski",
    "lon": "17.14752",
    "lat": "51.03348",
    "zoom": "12",
    "url": "siechnice",
    "districts": [],
    "label": "Siechnice"
  },
  {
    "id": "36783",
    "text": "Smolec, gm. Kąty Wrocławskie, wrocławski, Dolnośląskie",
    "text_simple": "Smolec",
    "text_gray": "wrocławski",
    "lon": "16.88458",
    "lat": "51.07255",
    "zoom": "12",
    "url": "smolec",
    "districts": [],
    "label": "Smolec"
  },
  {
    "id": "36827",
    "text": "Sobótka, wrocławski, Dolnośląskie",
    "text_simple": "Sobótka",
    "text_gray": "wrocławski",
    "lon": "16.74524",
    "lat": "50.89879",
    "zoom": "12",
    "url": "sobotka",
    "districts": [],
    "label": "Sobótka"
  },
  {
    "id": "125427",
    "text": "Stronie Śląskie, kłodzki, Dolnośląskie",
    "text_simple": "Stronie Śląskie",
    "text_gray": "kłodzki",
    "lon": "16.87500",
    "lat": "50.29867",
    "zoom": "12",
    "url": "stronie-slaskie_125427",
    "districts": [],
    "label": "Stronie Śląskie"
  },
  {
    "id": "143707",
    "text": "Strzegom, świdnicki, Dolnośląskie",
    "text_simple": "Strzegom",
    "text_gray": "świdnicki",
    "lon": "16.34863",
    "lat": "50.95928",
    "zoom": "12",
    "url": "strzegom",
    "districts": [],
    "label": "Strzegom"
  },
  {
    "id": "37423",
    "text": "Strzelin, strzeliński, Dolnośląskie",
    "text_simple": "Strzelin",
    "text_gray": "strzeliński",
    "lon": "17.06667",
    "lat": "50.78333",
    "zoom": "12",
    "url": "strzelin",
    "districts": [],
    "label": "Strzelin"
  },
  {
    "id": "55713",
    "text": "Syców, oleśnicki, Dolnośląskie",
    "text_simple": "Syców",
    "text_gray": "oleśnicki",
    "lon": "17.69555",
    "lat": "51.30457",
    "zoom": "12",
    "url": "sycow",
    "districts": [],
    "label": "Syców"
  },
  {
    "id": "55767",
    "text": "Szczawno-Zdrój, wałbrzyski, Dolnośląskie",
    "text_simple": "Szczawno-Zdrój",
    "text_gray": "wałbrzyski",
    "lon": "16.25397",
    "lat": "50.79975",
    "zoom": "12",
    "url": "szczawno-zdroj",
    "districts": [],
    "label": "Szczawno-Zdrój"
  },
  {
    "id": "107575",
    "text": "Szczytna, kłodzki, Dolnośląskie",
    "text_simple": "Szczytna",
    "text_gray": "kłodzki",
    "lon": "16.44780",
    "lat": "50.41148",
    "zoom": "12",
    "url": "szczytna_107575",
    "districts": [],
    "label": "Szczytna"
  },
  {
    "id": "96251",
    "text": "Szklarska Poręba, jeleniogórski, Dolnośląskie",
    "text_simple": "Szklarska Poręba",
    "text_gray": "jeleniogórski",
    "lon": "15.52013",
    "lat": "50.82873",
    "zoom": "12",
    "url": "szklarska-poreba",
    "districts": [],
    "label": "Szklarska Poręba"
  },
  {
    "id": "96783",
    "text": "Trzebnica, trzebnicki, Dolnośląskie",
    "text_simple": "Trzebnica",
    "text_gray": "trzebnicki",
    "lon": "17.08393",
    "lat": "51.32318",
    "zoom": "12",
    "url": "trzebnica",
    "districts": [],
    "label": "Trzebnica"
  },
  {
    "id": "144953",
    "text": "Twardogóra, oleśnicki, Dolnośląskie",
    "text_simple": "Twardogóra",
    "text_gray": "oleśnicki",
    "lon": "17.47054",
    "lat": "51.36326",
    "zoom": "12",
    "url": "twardogora",
    "districts": [],
    "label": "Twardogóra"
  },
  {
    "id": "17829",
    "text": "Wałbrzych, Dolnośląskie",
    "text_simple": "Wałbrzych",
    "text_gray": "Dolnośląskie",
    "lon": "16.28430",
    "lat": "50.78400",
    "zoom": "12",
    "url": "walbrzych",
    "districts": [],
    "label": "Wałbrzych"
  },
  {
    "id": "128051",
    "text": "Wiązów, strzeliński, Dolnośląskie",
    "text_simple": "Wiązów",
    "text_gray": "strzeliński",
    "lon": "17.20353",
    "lat": "50.81275",
    "zoom": "12",
    "url": "wiazow",
    "districts": [],
    "label": "Wiązów"
  },
  {
    "id": "58729",
    "text": "Wołów, wołowski, Dolnośląskie",
    "text_simple": "Wołów",
    "text_gray": "wołowski",
    "lon": "16.64496",
    "lat": "51.33615",
    "zoom": "12",
    "url": "wolow",
    "districts": [],
    "label": "Wołów"
  },
  {
    "id": "393",
    "city_id": "19701",
    "text": "Wrocław, Fabryczna",
    "text_district": "Fabryczna",
    "text_gray": "",
    "lon": "16.93842",
    "lat": "51.12232",
    "zoom": 13,
    "label": "Wrocław, Fabryczna"
  },
  {
    "id": "391",
    "city_id": "19701",
    "text": "Wrocław, Krzyki",
    "text_district": "Krzyki",
    "text_gray": "",
    "lon": "17.03466",
    "lat": "51.07576",
    "zoom": 13,
    "label": "Wrocław, Krzyki"
  },
  {
    "id": "389",
    "city_id": "19701",
    "text": "Wrocław, Psie Pole",
    "text_district": "Psie Pole",
    "text_gray": "",
    "lon": "17.07536",
    "lat": "51.14561",
    "zoom": 13,
    "label": "Wrocław, Psie Pole"
  },
  {
    "id": "387",
    "city_id": "19701",
    "text": "Wrocław, Śródmieście",
    "text_district": "Śródmieście",
    "text_gray": "",
    "lon": "17.06436",
    "lat": "51.11464",
    "zoom": 13,
    "label": "Wrocław, Śródmieście"
  },
  {
    "id": "385",
    "city_id": "19701",
    "text": "Wrocław, Stare Miasto",
    "text_district": "Stare Miasto",
    "text_gray": "",
    "lon": "17.02526",
    "lat": "51.10934",
    "zoom": 13,
    "label": "Wrocław, Stare Miasto"
  },
  {
    "id": "20231",
    "text": "Wysoka, wrocławski, Dolnośląskie",
    "text_simple": "Wysoka",
    "text_gray": "wrocławski",
    "lon": "17.01475",
    "lat": "51.04226",
    "zoom": "12",
    "url": "wysoka",
    "districts": [],
    "label": "Wysoka"
  },
  {
    "id": "76135",
    "text": "Wąsosz, górowski, Dolnośląskie",
    "text_simple": "Wąsosz",
    "text_gray": "górowski",
    "lon": "16.69552",
    "lat": "51.56441",
    "zoom": "12",
    "url": "wasosz_76135",
    "districts": [],
    "label": "Wąsosz"
  },
  {
    "id": "129619",
    "text": "Zgorzelec, zgorzelecki, Dolnośląskie",
    "text_simple": "Zgorzelec",
    "text_gray": "zgorzelecki",
    "lon": "15.01585",
    "lat": "51.14865",
    "zoom": "12",
    "url": "zgorzelec",
    "districts": [],
    "label": "Zgorzelec"
  },
  {
    "id": "20915",
    "text": "Ziębice, ząbkowicki, Dolnośląskie",
    "text_simple": "Ziębice",
    "text_gray": "ząbkowicki",
    "lon": "17.04410",
    "lat": "50.60102",
    "zoom": "12",
    "url": "ziebice",
    "districts": [],
    "label": "Ziębice"
  },
  {
    "id": "59751",
    "text": "Ząbkowice Śląskie, ząbkowicki, Dolnośląskie",
    "text_simple": "Ząbkowice Śląskie",
    "text_gray": "ząbkowicki",
    "lon": "16.81108",
    "lat": "50.59629",
    "zoom": "12",
    "url": "zabkowice-slaskie",
    "districts": [],
    "label": "Ząbkowice Śląskie"
  },
  {
    "id": "20949",
    "text": "Złotoryja, złotoryjski, Dolnośląskie",
    "text_simple": "Złotoryja",
    "text_gray": "złotoryjski",
    "lon": "15.91757",
    "lat": "51.12343",
    "zoom": "12",
    "url": "zlotoryja",
    "districts": [],
    "label": "Złotoryja"
  },
  {
    "id": "137641",
    "text": "Łagiewniki, dzierżoniowski, Dolnośląskie",
    "text_simple": "Łagiewniki",
    "text_gray": "dzierżoniowski",
    "lon": "16.84623",
    "lat": "50.79016",
    "zoom": "12",
    "url": "lagiewniki_137641",
    "districts": [],
    "label": "Łagiewniki"
  },
  {
    "id": "17177",
    "text": "Ścinawa, lubiński, Dolnośląskie",
    "text_simple": "Ścinawa",
    "text_gray": "lubiński",
    "lon": "16.43897",
    "lat": "51.40983",
    "zoom": "12",
    "url": "scinawa",
    "districts": [],
    "label": "Ścinawa"
  },
  {
    "id": "17225",
    "text": "Środa Śląska, średzki, Dolnośląskie",
    "text_simple": "Środa Śląska",
    "text_gray": "średzki",
    "lon": "16.59520",
    "lat": "51.16309",
    "zoom": "12",
    "url": "sroda-slaska",
    "districts": [],
    "label": "Środa Śląska"
  },
  {
    "id": "38153",
    "text": "Świdnica, świdnicki, Dolnośląskie",
    "text_simple": "Świdnica",
    "text_gray": "świdnicki",
    "lon": "16.48860",
    "lat": "50.84051",
    "zoom": "12",
    "url": "swidnica",
    "districts": [],
    "label": "Świdnica"
  },
  {
    "id": "38163",
    "text": "Świebodzice, świdnicki, Dolnośląskie",
    "text_simple": "Świebodzice",
    "text_gray": "świdnicki",
    "lon": "16.32151",
    "lat": "50.85803",
    "zoom": "12",
    "url": "swiebodzice",
    "districts": [],
    "label": "Świebodzice"
  },
  {
    "id": "107811",
    "text": "Świeradów-Zdrój, lubański, Dolnośląskie",
    "text_simple": "Świeradów-Zdrój",
    "text_gray": "lubański",
    "lon": "15.34200",
    "lat": "50.91210",
    "zoom": "12",
    "url": "swieradow-zdroj",
    "districts": [],
    "label": "Świeradów-Zdrój"
  },
  {
    "id": "111565",
    "text": "Żarów, świdnicki, Dolnośląskie",
    "text_simple": "Żarów",
    "text_gray": "świdnicki",
    "lon": "16.49665",
    "lat": "50.93947",
    "zoom": "12",
    "url": "zarow_111565",
    "districts": [],
    "label": "Żarów"
  },
  {
    "id": "148339",
    "text": "Żmigród, trzebnicki, Dolnośląskie",
    "text_simple": "Żmigród",
    "text_gray": "trzebnicki",
    "lon": "16.90779",
    "lat": "51.46760",
    "zoom": "12",
    "url": "zmigrod",
    "districts": [],
    "label": "Żmigród"
  },
  {
    "id": "627",
    "text": "Aleksandrów Kujawski, aleksandrowski, Kujawsko-pomorskie",
    "text_simple": "Aleksandrów Kujawski",
    "text_gray": "aleksandrowski",
    "lon": "18.69801",
    "lat": "52.86653",
    "zoom": "12",
    "url": "aleksandrow-kujawski",
    "districts": [],
    "label": "Aleksandrów Kujawski"
  },
  {
    "id": "561",
    "text": "Barcin, żniński, Kujawsko-pomorskie",
    "text_simple": "Barcin",
    "text_gray": "żniński",
    "lon": "17.93792",
    "lat": "52.85584",
    "zoom": "12",
    "url": "barcin",
    "districts": [],
    "label": "Barcin"
  },
  {
    "id": "41973",
    "text": "Białe Błota, bydgoski, Kujawsko-pomorskie",
    "text_simple": "Białe Błota",
    "text_gray": "bydgoski",
    "lon": "17.91819",
    "lat": "53.09754",
    "zoom": "12",
    "url": "biale-blota_41973",
    "districts": [],
    "label": "Białe Błota"
  },
  {
    "id": "21803",
    "text": "Brodnica, brodnicki, Kujawsko-pomorskie",
    "text_simple": "Brodnica",
    "text_gray": "brodnicki",
    "lon": "19.40285",
    "lat": "53.25021",
    "zoom": "12",
    "url": "brodnica",
    "districts": [],
    "label": "Brodnica"
  },
  {
    "id": "112345",
    "text": "Brześć Kujawski, włocławski, Kujawsko-pomorskie",
    "text_simple": "Brześć Kujawski",
    "text_gray": "włocławski",
    "lon": "18.90209",
    "lat": "52.60443",
    "zoom": "12",
    "url": "brzesc-kujawski",
    "districts": [],
    "label": "Brześć Kujawski"
  },
  {
    "id": "24893",
    "text": "Brzoza, bydgoski, Kujawsko-pomorskie",
    "text_simple": "Brzoza",
    "text_gray": "bydgoski",
    "lon": "18.01435",
    "lat": "53.03058",
    "zoom": "12",
    "url": "brzoza_24893",
    "districts": [],
    "label": "Brzoza"
  },
  {
    "id": "112425",
    "text": "Brzozówka, toruński, Kujawsko-pomorskie",
    "text_simple": "Brzozówka",
    "text_gray": "toruński",
    "lon": "18.80781",
    "lat": "53.02156",
    "zoom": "12",
    "url": "brzozowka_112425",
    "districts": [],
    "label": "Brzozówka"
  },
  {
    "id": "4019",
    "text": "Bydgoszcz, Kujawsko-pomorskie",
    "text_simple": "Bydgoszcz",
    "text_gray": "Kujawsko-pomorskie",
    "lon": "17.99035",
    "lat": "53.13420",
    "zoom": "13",
    "url": "bydgoszcz",
    "districts": [],
    "label": "Bydgoszcz"
  },
  {
    "id": "22441",
    "text": "Cekcyn, tucholski, Kujawsko-pomorskie",
    "text_simple": "Cekcyn",
    "text_gray": "tucholski",
    "lon": "18.01283",
    "lat": "53.57311",
    "zoom": "12",
    "url": "cekcyn",
    "districts": [],
    "label": "Cekcyn"
  },
  {
    "id": "22501",
    "text": "Chełmno, chełmiński, Kujawsko-pomorskie",
    "text_simple": "Chełmno",
    "text_gray": "chełmiński",
    "lon": "18.43333",
    "lat": "53.35000",
    "zoom": "12",
    "url": "chelmno",
    "districts": [],
    "label": "Chełmno"
  },
  {
    "id": "61523",
    "text": "Chełmża, toruński, Kujawsko-pomorskie",
    "text_simple": "Chełmża",
    "text_gray": "toruński",
    "lon": "18.60600",
    "lat": "53.18478",
    "zoom": "12",
    "url": "chelmza",
    "districts": [],
    "label": "Chełmża"
  },
  {
    "id": "61553",
    "text": "Choceń, włocławski, Kujawsko-pomorskie",
    "text_simple": "Choceń",
    "text_gray": "włocławski",
    "lon": "19.01740",
    "lat": "52.48549",
    "zoom": "12",
    "url": "chocen",
    "districts": [],
    "label": "Choceń"
  },
  {
    "id": "131575",
    "text": "Chodecz, włocławski, Kujawsko-pomorskie",
    "text_simple": "Chodecz",
    "text_gray": "włocławski",
    "lon": "19.02872",
    "lat": "52.40483",
    "zoom": "12",
    "url": "chodecz",
    "districts": [],
    "label": "Chodecz"
  },
  {
    "id": "4499",
    "text": "Ciechocinek, aleksandrowski, Kujawsko-pomorskie",
    "text_simple": "Ciechocinek",
    "text_gray": "aleksandrowski",
    "lon": "18.79115",
    "lat": "52.86943",
    "zoom": "12",
    "url": "ciechocinek",
    "districts": [],
    "label": "Ciechocinek"
  },
  {
    "id": "4739",
    "text": "Czernikowo, toruński, Kujawsko-pomorskie",
    "text_simple": "Czernikowo",
    "text_gray": "toruński",
    "lon": "18.93902",
    "lat": "52.94578",
    "zoom": "12",
    "url": "czernikowo",
    "districts": [],
    "label": "Czernikowo"
  },
  {
    "id": "44211",
    "text": "Dobrcz, bydgoski, Kujawsko-pomorskie",
    "text_simple": "Dobrcz",
    "text_gray": "bydgoski",
    "lon": "18.14790",
    "lat": "53.26587",
    "zoom": "12",
    "url": "dobrcz",
    "districts": [],
    "label": "Dobrcz"
  },
  {
    "id": "132427",
    "text": "Dobre, radziejowski, Kujawsko-pomorskie",
    "text_simple": "Dobre",
    "text_gray": "radziejowski",
    "lon": "18.57837",
    "lat": "52.68149",
    "zoom": "12",
    "url": "dobre_132427",
    "districts": [],
    "label": "Dobre"
  },
  {
    "id": "80227",
    "text": "Dobrzyń nad Wisłą, lipnowski, Kujawsko-pomorskie",
    "text_simple": "Dobrzyń nad Wisłą",
    "text_gray": "lipnowski",
    "lon": "19.32333",
    "lat": "52.63542",
    "zoom": "12",
    "url": "dobrzyn-nad-wisla",
    "districts": [],
    "label": "Dobrzyń nad Wisłą"
  },
  {
    "id": "23425",
    "text": "Dolna Grupa, świecki, Kujawsko-pomorskie",
    "text_simple": "Dolna Grupa",
    "text_gray": "świecki",
    "lon": "18.68103",
    "lat": "53.49792",
    "zoom": "12",
    "url": "dolna-grupa",
    "districts": [],
    "label": "Dolna Grupa"
  },
  {
    "id": "26413",
    "text": "Drzycim, świecki, Kujawsko-pomorskie",
    "text_simple": "Drzycim",
    "text_gray": "świecki",
    "lon": "18.31597",
    "lat": "53.50974",
    "zoom": "12",
    "url": "drzycim",
    "districts": [],
    "label": "Drzycim"
  },
  {
    "id": "79993",
    "text": "Dąbrowa Biskupia, inowrocławski, Kujawsko-pomorskie",
    "text_simple": "Dąbrowa Biskupia",
    "text_gray": "inowrocławski",
    "lon": "18.53387",
    "lat": "52.77645",
    "zoom": "12",
    "url": "dabrowa-biskupia",
    "districts": [],
    "label": "Dąbrowa Biskupia"
  },
  {
    "id": "79995",
    "text": "Dąbrowa Chełmińska, bydgoski, Kujawsko-pomorskie",
    "text_simple": "Dąbrowa Chełmińska",
    "text_gray": "bydgoski",
    "lon": "18.30586",
    "lat": "53.17483",
    "zoom": "12",
    "url": "dabrowa-chelminska",
    "districts": [],
    "label": "Dąbrowa Chełmińska"
  },
  {
    "id": "27227",
    "text": "Gniewkowo, inowrocławski, Kujawsko-pomorskie",
    "text_simple": "Gniewkowo",
    "text_gray": "inowrocławski",
    "lon": "18.41116",
    "lat": "52.89387",
    "zoom": "12",
    "url": "gniewkowo_27227",
    "districts": [],
    "label": "Gniewkowo"
  },
  {
    "id": "45303",
    "text": "Golub-Dobrzyń, golubsko-dobrzyński, Kujawsko-pomorskie",
    "text_simple": "Golub-Dobrzyń",
    "text_gray": "golubsko-dobrzyński",
    "lon": "19.05372",
    "lat": "53.11187",
    "zoom": "12",
    "url": "golub-dobrzyn",
    "districts": [],
    "label": "Golub-Dobrzyń"
  },
  {
    "id": "6653",
    "text": "Grudziądz, Kujawsko-pomorskie",
    "text_simple": "Grudziądz",
    "text_gray": "Kujawsko-pomorskie",
    "lon": "18.77287",
    "lat": "53.46469",
    "zoom": "12",
    "url": "grudziadz",
    "districts": [],
    "label": "Grudziądz"
  },
  {
    "id": "6567",
    "text": "Grębocin, gm. Lubicz, toruński, Kujawsko-pomorskie",
    "text_simple": "Grębocin",
    "text_gray": "toruński",
    "lon": "18.75446",
    "lat": "53.03509",
    "zoom": "12",
    "url": "grebocin",
    "districts": [],
    "label": "Grębocin"
  },
  {
    "id": "85607",
    "text": "Górzno, brodnicki, Kujawsko-pomorskie",
    "text_simple": "Górzno",
    "text_gray": "brodnicki",
    "lon": "19.64375",
    "lat": "53.19612",
    "zoom": "12",
    "url": "gorzno_85607",
    "districts": [],
    "label": "Górzno"
  },
  {
    "id": "85279",
    "text": "Głogowo, toruński, Kujawsko-pomorskie",
    "text_simple": "Głogowo",
    "text_gray": "toruński",
    "lon": "18.82471",
    "lat": "53.01320",
    "zoom": "12",
    "url": "glogowo",
    "districts": [],
    "label": "Głogowo"
  },
  {
    "id": "6909",
    "text": "Inowrocław, inowrocławski, Kujawsko-pomorskie",
    "text_simple": "Inowrocław",
    "text_gray": "inowrocławski",
    "lon": "18.26298",
    "lat": "52.79350",
    "zoom": "12",
    "url": "inowroclaw",
    "districts": [],
    "label": "Inowrocław"
  },
  {
    "id": "115603",
    "text": "Izbica Kujawska, włocławski, Kujawsko-pomorskie",
    "text_simple": "Izbica Kujawska",
    "text_gray": "włocławski",
    "lon": "18.76606",
    "lat": "52.42007",
    "zoom": "12",
    "url": "izbica-kujawska",
    "districts": [],
    "label": "Izbica Kujawska"
  },
  {
    "id": "64141",
    "text": "Jabłonowo Pomorskie, brodnicki, Kujawsko-pomorskie",
    "text_simple": "Jabłonowo Pomorskie",
    "text_gray": "brodnicki",
    "lon": "19.15512",
    "lat": "53.38945",
    "zoom": "12",
    "url": "jablonowo-pomorskie",
    "districts": [],
    "label": "Jabłonowo Pomorskie"
  },
  {
    "id": "64231",
    "text": "Janikowo, inowrocławski, Kujawsko-pomorskie",
    "text_simple": "Janikowo",
    "text_gray": "inowrocławski",
    "lon": "18.11518",
    "lat": "52.74921",
    "zoom": "12",
    "url": "janikowo_64231",
    "districts": [],
    "label": "Janikowo"
  },
  {
    "id": "82017",
    "text": "Janowiec Wielkopolski, żniński, Kujawsko-pomorskie",
    "text_simple": "Janowiec Wielkopolski",
    "text_gray": "żniński",
    "lon": "17.48731",
    "lat": "52.75786",
    "zoom": "12",
    "url": "janowiec-wielkopolski",
    "districts": [],
    "label": "Janowiec Wielkopolski"
  },
  {
    "id": "116325",
    "text": "Kamień Krajeński, sępoleński, Kujawsko-pomorskie",
    "text_simple": "Kamień Krajeński",
    "text_gray": "sępoleński",
    "lon": "17.52202",
    "lat": "53.53274",
    "zoom": "12",
    "url": "kamien-krajenski",
    "districts": [],
    "label": "Kamień Krajeński"
  },
  {
    "id": "7919",
    "text": "Kcynia, nakielski, Kujawsko-pomorskie",
    "text_simple": "Kcynia",
    "text_gray": "nakielski",
    "lon": "17.48937",
    "lat": "52.99108",
    "zoom": "12",
    "url": "kcynia",
    "districts": [],
    "label": "Kcynia"
  },
  {
    "id": "87403",
    "text": "Kikół, lipnowski, Kujawsko-pomorskie",
    "text_simple": "Kikół",
    "text_gray": "lipnowski",
    "lon": "19.12048",
    "lat": "52.91228",
    "zoom": "12",
    "url": "kikol",
    "districts": [],
    "label": "Kikół"
  },
  {
    "id": "83513",
    "text": "Koronowo, bydgoski, Kujawsko-pomorskie",
    "text_simple": "Koronowo",
    "text_gray": "bydgoski",
    "lon": "17.94148",
    "lat": "53.31296",
    "zoom": "12",
    "url": "koronowo",
    "districts": [],
    "label": "Koronowo"
  },
  {
    "id": "66069",
    "text": "Kowal, włocławski, Kujawsko-pomorskie",
    "text_simple": "Kowal",
    "text_gray": "włocławski",
    "lon": "19.14972",
    "lat": "52.53054",
    "zoom": "12",
    "url": "kowal",
    "districts": [],
    "label": "Kowal"
  },
  {
    "id": "47905",
    "text": "Kowalewo Pomorskie, golubsko-dobrzyński, Kujawsko-pomorskie",
    "text_simple": "Kowalewo Pomorskie",
    "text_gray": "golubsko-dobrzyński",
    "lon": "18.90166",
    "lat": "53.15508",
    "zoom": "12",
    "url": "kowalewo-pomorskie",
    "districts": [],
    "label": "Kowalewo Pomorskie"
  },
  {
    "id": "9339",
    "text": "Krobia, toruński, Kujawsko-pomorskie",
    "text_simple": "Krobia",
    "text_gray": "toruński",
    "lon": "18.78638",
    "lat": "53.03691",
    "zoom": "12",
    "url": "krobia",
    "districts": [],
    "label": "Krobia"
  },
  {
    "id": "66657",
    "text": "Kruszwica, inowrocławski, Kujawsko-pomorskie",
    "text_simple": "Kruszwica",
    "text_gray": "inowrocławski",
    "lon": "18.33116",
    "lat": "52.66974",
    "zoom": "12",
    "url": "kruszwica",
    "districts": [],
    "label": "Kruszwica"
  },
  {
    "id": "48987",
    "text": "Lipno, lipnowski, Kujawsko-pomorskie",
    "text_simple": "Lipno",
    "text_gray": "lipnowski",
    "lon": "19.17463",
    "lat": "52.83782",
    "zoom": "12",
    "url": "lipno",
    "districts": [],
    "label": "Lipno"
  },
  {
    "id": "100567",
    "text": "Lisewo, chełmiński, Kujawsko-pomorskie",
    "text_simple": "Lisewo",
    "text_gray": "chełmiński",
    "lon": "18.68940",
    "lat": "53.29460",
    "zoom": "12",
    "url": "lisewo_100567",
    "districts": [],
    "label": "Lisewo"
  },
  {
    "id": "118947",
    "text": "Lniano, świecki, Kujawsko-pomorskie",
    "text_simple": "Lniano",
    "text_gray": "świecki",
    "lon": "18.21972",
    "lat": "53.52738",
    "zoom": "12",
    "url": "lniano",
    "districts": [],
    "label": "Lniano"
  },
  {
    "id": "118955",
    "text": "Lubanie, włocławski, Kujawsko-pomorskie",
    "text_simple": "Lubanie",
    "text_gray": "włocławski",
    "lon": "18.92173",
    "lat": "52.74842",
    "zoom": "12",
    "url": "lubanie",
    "districts": [],
    "label": "Lubanie"
  },
  {
    "id": "118975",
    "text": "Lubicz Dolny, toruński, Kujawsko-pomorskie",
    "text_simple": "Lubicz Dolny",
    "text_gray": "toruński",
    "lon": "18.75342",
    "lat": "53.03174",
    "zoom": "12",
    "url": "lubicz-dolny",
    "districts": [],
    "label": "Lubicz Dolny"
  },
  {
    "id": "137333",
    "text": "Lubicz Górny, toruński, Kujawsko-pomorskie",
    "text_simple": "Lubicz Górny",
    "text_gray": "toruński",
    "lon": "18.75770",
    "lat": "53.01559",
    "zoom": "12",
    "url": "lubicz-gorny",
    "districts": [],
    "label": "Lubicz Górny"
  },
  {
    "id": "10091",
    "text": "Lubień Kujawski, włocławski, Kujawsko-pomorskie",
    "text_simple": "Lubień Kujawski",
    "text_gray": "włocławski",
    "lon": "19.16602",
    "lat": "52.40521",
    "zoom": "12",
    "url": "lubien-kujawski",
    "districts": [],
    "label": "Lubień Kujawski"
  },
  {
    "id": "67533",
    "text": "Lubraniec, włocławski, Kujawsko-pomorskie",
    "text_simple": "Lubraniec",
    "text_gray": "włocławski",
    "lon": "18.83362",
    "lat": "52.54130",
    "zoom": "12",
    "url": "lubraniec",
    "districts": [],
    "label": "Lubraniec"
  },
  {
    "id": "120103",
    "text": "Mała Nieszawka, gm. Wielka Nieszawka, toruński, Kujawsko-pomorskie",
    "text_simple": "Mała Nieszawka",
    "text_gray": "toruński",
    "lon": "18.54717",
    "lat": "52.98930",
    "zoom": "12",
    "url": "mala-nieszawka",
    "districts": [],
    "label": "Mała Nieszawka"
  },
  {
    "id": "32661",
    "text": "Mogilno, mogileński, Kujawsko-pomorskie",
    "text_simple": "Mogilno",
    "text_gray": "mogileński",
    "lon": "17.96175",
    "lat": "52.65346",
    "zoom": "12",
    "url": "mogilno",
    "districts": [],
    "label": "Mogilno"
  },
  {
    "id": "69047",
    "text": "Mrocza, nakielski, Kujawsko-pomorskie",
    "text_simple": "Mrocza",
    "text_gray": "nakielski",
    "lon": "17.60866",
    "lat": "53.24567",
    "zoom": "12",
    "url": "mrocza",
    "districts": [],
    "label": "Mrocza"
  },
  {
    "id": "32863",
    "text": "Nakło nad Notecią, gm. Nakło Nad Notecią, nakielski, Kujawsko-pomorskie",
    "text_simple": "Nakło nad Notecią",
    "text_gray": "nakielski",
    "lon": "17.60400",
    "lat": "53.14118",
    "zoom": "12",
    "url": "naklo-nad-notecia",
    "districts": [],
    "label": "Nakło nad Notecią"
  },
  {
    "id": "51069",
    "text": "Niemcz, bydgoski, Kujawsko-pomorskie",
    "text_simple": "Niemcz",
    "text_gray": "bydgoski",
    "lon": "18.03597",
    "lat": "53.18368",
    "zoom": "12",
    "url": "niemcz",
    "districts": [],
    "label": "Niemcz"
  },
  {
    "id": "69401",
    "text": "Nowa Wieś Wielka, bydgoski, Kujawsko-pomorskie",
    "text_simple": "Nowa Wieś Wielka",
    "text_gray": "bydgoski",
    "lon": "18.09306",
    "lat": "52.97016",
    "zoom": "12",
    "url": "nowa-wies-wielka_69401",
    "districts": [],
    "label": "Nowa Wieś Wielka"
  },
  {
    "id": "12285",
    "text": "Nowe, świecki, Kujawsko-pomorskie",
    "text_simple": "Nowe",
    "text_gray": "świecki",
    "lon": "18.71849",
    "lat": "53.64175",
    "zoom": "12",
    "url": "nowe",
    "districts": [],
    "label": "Nowe"
  },
  {
    "id": "69625",
    "text": "Obrowo, toruński, Kujawsko-pomorskie",
    "text_simple": "Obrowo",
    "text_gray": "toruński",
    "lon": "18.88203",
    "lat": "52.97058",
    "zoom": "12",
    "url": "obrowo_69625",
    "districts": [],
    "label": "Obrowo"
  },
  {
    "id": "140171",
    "text": "Osie, świecki, Kujawsko-pomorskie",
    "text_simple": "Osie",
    "text_gray": "świecki",
    "lon": "18.34645",
    "lat": "53.59779",
    "zoom": "12",
    "url": "osie",
    "districts": [],
    "label": "Osie"
  },
  {
    "id": "13095",
    "text": "Osiek Nad Wisłą, toruński, Kujawsko-pomorskie",
    "text_simple": "Osiek Nad Wisłą",
    "text_gray": "toruński",
    "lon": "18.80208",
    "lat": "52.92786",
    "zoom": "12",
    "url": "osiek-nad-wisla",
    "districts": [],
    "label": "Osiek Nad Wisłą"
  },
  {
    "id": "140187",
    "text": "Osielsko, bydgoski, Kujawsko-pomorskie",
    "text_simple": "Osielsko",
    "text_gray": "bydgoski",
    "lon": "18.07336",
    "lat": "53.18813",
    "zoom": "12",
    "url": "osielsko",
    "districts": [],
    "label": "Osielsko"
  },
  {
    "id": "121993",
    "text": "Osięciny, radziejowski, Kujawsko-pomorskie",
    "text_simple": "Osięciny",
    "text_gray": "radziejowski",
    "lon": "18.72394",
    "lat": "52.63129",
    "zoom": "12",
    "url": "osieciny",
    "districts": [],
    "label": "Osięciny"
  },
  {
    "id": "70331",
    "text": "Pakość, inowrocławski, Kujawsko-pomorskie",
    "text_simple": "Pakość",
    "text_gray": "inowrocławski",
    "lon": "18.08571",
    "lat": "52.80291",
    "zoom": "12",
    "url": "pakosc_70331",
    "districts": [],
    "label": "Pakość"
  },
  {
    "id": "52541",
    "text": "Piotrków Kujawski, radziejowski, Kujawsko-pomorskie",
    "text_simple": "Piotrków Kujawski",
    "text_gray": "radziejowski",
    "lon": "18.50000",
    "lat": "52.55000",
    "zoom": "12",
    "url": "piotrkow-kujawski",
    "districts": [],
    "label": "Piotrków Kujawski"
  },
  {
    "id": "71563",
    "text": "Pruszcz, świecki, Kujawsko-pomorskie",
    "text_simple": "Pruszcz",
    "text_gray": "świecki",
    "lon": "18.19961",
    "lat": "53.33092",
    "zoom": "12",
    "url": "pruszcz_71563",
    "districts": [],
    "label": "Pruszcz"
  },
  {
    "id": "35563",
    "text": "Raciążek, aleksandrowski, Kujawsko-pomorskie",
    "text_simple": "Raciążek",
    "text_gray": "aleksandrowski",
    "lon": "18.80874",
    "lat": "52.85658",
    "zoom": "12",
    "url": "raciazek",
    "districts": [],
    "label": "Raciążek"
  },
  {
    "id": "123737",
    "text": "Radziejów, radziejowski, Kujawsko-pomorskie",
    "text_simple": "Radziejów",
    "text_gray": "radziejowski",
    "lon": "18.52907",
    "lat": "52.62296",
    "zoom": "12",
    "url": "radziejow",
    "districts": [],
    "label": "Radziejów"
  },
  {
    "id": "141957",
    "text": "Radzyń Chełmiński, grudziądzki, Kujawsko-pomorskie",
    "text_simple": "Radzyń Chełmiński",
    "text_gray": "grudziądzki",
    "lon": "18.93601",
    "lat": "53.38554",
    "zoom": "12",
    "url": "radzyn-chelminski",
    "districts": [],
    "label": "Radzyń Chełmiński"
  },
  {
    "id": "72049",
    "text": "Rogowo, żniński, Kujawsko-pomorskie",
    "text_simple": "Rogowo",
    "text_gray": "żniński",
    "lon": "17.65290",
    "lat": "52.72427",
    "zoom": "12",
    "url": "rogowo_72049",
    "districts": [],
    "label": "Rogowo"
  },
  {
    "id": "72161",
    "text": "Rozgarty, toruński, Kujawsko-pomorskie",
    "text_simple": "Rozgarty",
    "text_gray": "toruński",
    "lon": "18.47862",
    "lat": "53.03943",
    "zoom": "12",
    "url": "rozgarty_72161",
    "districts": [],
    "label": "Rozgarty"
  },
  {
    "id": "36169",
    "text": "Rypin, rypiński, Kujawsko-pomorskie",
    "text_simple": "Rypin",
    "text_gray": "rypiński",
    "lon": "19.41570",
    "lat": "53.06519",
    "zoom": "12",
    "url": "rypin",
    "districts": [],
    "label": "Rypin"
  },
  {
    "id": "124369",
    "text": "Sadki, nakielski, Kujawsko-pomorskie",
    "text_simple": "Sadki",
    "text_gray": "nakielski",
    "lon": "17.45174",
    "lat": "53.15913",
    "zoom": "12",
    "url": "sadki_124369",
    "districts": [],
    "label": "Sadki"
  },
  {
    "id": "124679",
    "text": "Skępe, lipnowski, Kujawsko-pomorskie",
    "text_simple": "Skępe",
    "text_gray": "lipnowski",
    "lon": "19.34358",
    "lat": "52.86841",
    "zoom": "12",
    "url": "skepe",
    "districts": [],
    "label": "Skępe"
  },
  {
    "id": "54995",
    "text": "Solec Kujawski, bydgoski, Kujawsko-pomorskie",
    "text_simple": "Solec Kujawski",
    "text_gray": "bydgoski",
    "lon": "18.22321",
    "lat": "53.07911",
    "zoom": "12",
    "url": "solec-kujawski",
    "districts": [],
    "label": "Solec Kujawski"
  },
  {
    "id": "16513",
    "text": "Strzelno, mogileński, Kujawsko-pomorskie",
    "text_simple": "Strzelno",
    "text_gray": "mogileński",
    "lon": "18.17605",
    "lat": "52.62999",
    "zoom": "12",
    "url": "strzelno_16513",
    "districts": [],
    "label": "Strzelno"
  },
  {
    "id": "17103",
    "text": "Szpetal Górny, włocławski, Kujawsko-pomorskie",
    "text_simple": "Szpetal Górny",
    "text_gray": "włocławski",
    "lon": "19.09758",
    "lat": "52.68146",
    "zoom": "12",
    "url": "szpetal-gorny",
    "districts": [],
    "label": "Szpetal Górny"
  },
  {
    "id": "144385",
    "text": "Szubin, nakielski, Kujawsko-pomorskie",
    "text_simple": "Szubin",
    "text_gray": "nakielski",
    "lon": "17.74382",
    "lat": "53.00870",
    "zoom": "12",
    "url": "szubin",
    "districts": [],
    "label": "Szubin"
  },
  {
    "id": "124481",
    "text": "Sępólno Krajeńskie, sępoleński, Kujawsko-pomorskie",
    "text_simple": "Sępólno Krajeńskie",
    "text_gray": "sępoleński",
    "lon": "17.53593",
    "lat": "53.45469",
    "zoom": "12",
    "url": "sepolno-krajenskie",
    "districts": [],
    "label": "Sępólno Krajeńskie"
  },
  {
    "id": "96541",
    "text": "Tarkowo Dolne, bydgoski, Kujawsko-pomorskie",
    "text_simple": "Tarkowo Dolne",
    "text_gray": "bydgoski",
    "lon": "18.10030",
    "lat": "52.95086",
    "zoom": "12",
    "url": "tarkowo-dolne",
    "districts": [],
    "label": "Tarkowo Dolne"
  },
  {
    "id": "108035",
    "text": "Topólka, radziejowski, Kujawsko-pomorskie",
    "text_simple": "Topólka",
    "text_gray": "radziejowski",
    "lon": "18.71422",
    "lat": "52.50241",
    "zoom": "12",
    "url": "topolka",
    "districts": [],
    "label": "Topólka"
  },
  {
    "id": "38395",
    "text": "Toruń, Kujawsko-pomorskie",
    "text_simple": "Toruń",
    "text_gray": "Kujawsko-pomorskie",
    "lon": "18.61052",
    "lat": "53.00717",
    "zoom": "12",
    "url": "torun",
    "districts": [],
    "label": "Toruń"
  },
  {
    "id": "38535",
    "text": "Tuchola, tucholski, Kujawsko-pomorskie",
    "text_simple": "Tuchola",
    "text_gray": "tucholski",
    "lon": "17.86441",
    "lat": "53.58351",
    "zoom": "12",
    "url": "tuchola",
    "districts": [],
    "label": "Tuchola"
  },
  {
    "id": "96617",
    "text": "Tłuchowo, lipnowski, Kujawsko-pomorskie",
    "text_simple": "Tłuchowo",
    "text_gray": "lipnowski",
    "lon": "19.46636",
    "lat": "52.74610",
    "zoom": "12",
    "url": "tluchowo",
    "districts": [],
    "label": "Tłuchowo"
  },
  {
    "id": "75009",
    "text": "Unisław, chełmiński, Kujawsko-pomorskie",
    "text_simple": "Unisław",
    "text_gray": "chełmiński",
    "lon": "18.38368",
    "lat": "53.21082",
    "zoom": "12",
    "url": "unislaw_75009",
    "districts": [],
    "label": "Unisław"
  },
  {
    "id": "108469",
    "text": "Warlubie, świecki, Kujawsko-pomorskie",
    "text_simple": "Warlubie",
    "text_gray": "świecki",
    "lon": "18.62936",
    "lat": "53.58537",
    "zoom": "12",
    "url": "warlubie",
    "districts": [],
    "label": "Warlubie"
  },
  {
    "id": "109811",
    "text": "Więcbork, sępoleński, Kujawsko-pomorskie",
    "text_simple": "Więcbork",
    "text_gray": "sępoleński",
    "lon": "17.48532",
    "lat": "53.34818",
    "zoom": "12",
    "url": "wiecbork",
    "districts": [],
    "label": "Więcbork"
  },
  {
    "id": "19011",
    "text": "Wąbrzeźno, wąbrzeski, Kujawsko-pomorskie",
    "text_simple": "Wąbrzeźno",
    "text_gray": "wąbrzeski",
    "lon": "18.94751",
    "lat": "53.28104",
    "zoom": "12",
    "url": "wabrzezno",
    "districts": [],
    "label": "Wąbrzeźno"
  },
  {
    "id": "19403",
    "text": "Włocławek, Kujawsko-pomorskie",
    "text_simple": "Włocławek",
    "text_gray": "Kujawsko-pomorskie",
    "lon": "19.07799",
    "lat": "52.65975",
    "zoom": "12",
    "url": "wloclawek",
    "districts": [],
    "label": "Włocławek"
  },
  {
    "id": "20445",
    "text": "Zakrzewo, aleksandrowski, Kujawsko-pomorskie",
    "text_simple": "Zakrzewo",
    "text_gray": "aleksandrowski",
    "lon": "18.63005",
    "lat": "52.75706",
    "zoom": "12",
    "url": "zakrzewo_20445",
    "districts": [],
    "label": "Zakrzewo"
  },
  {
    "id": "20505",
    "text": "Zamość, nakielski, Kujawsko-pomorskie",
    "text_simple": "Zamość",
    "text_gray": "nakielski",
    "lon": "17.81075",
    "lat": "53.07307",
    "zoom": "12",
    "url": "zamosc_20505",
    "districts": [],
    "label": "Zamość"
  },
  {
    "id": "20891",
    "text": "Zielonka, bydgoski, Kujawsko-pomorskie",
    "text_simple": "Zielonka",
    "text_gray": "bydgoski",
    "lon": "17.94642",
    "lat": "53.06291",
    "zoom": "12",
    "url": "zielonka_20891",
    "districts": [],
    "label": "Zielonka"
  },
  {
    "id": "148143",
    "text": "Złotniki Kujawskie, inowrocławski, Kujawsko-pomorskie",
    "text_simple": "Złotniki Kujawskie",
    "text_gray": "inowrocławski",
    "lon": "18.14360",
    "lat": "52.90435",
    "zoom": "12",
    "url": "zlotniki-kujawskie",
    "districts": [],
    "label": "Złotniki Kujawskie"
  },
  {
    "id": "100845",
    "text": "Łabiszyn, żniński, Kujawsko-pomorskie",
    "text_simple": "Łabiszyn",
    "text_gray": "żniński",
    "lon": "17.91667",
    "lat": "52.95000",
    "zoom": "12",
    "url": "labiszyn",
    "districts": [],
    "label": "Łabiszyn"
  },
  {
    "id": "137675",
    "text": "Łasin, grudziądzki, Kujawsko-pomorskie",
    "text_simple": "Łasin",
    "text_gray": "grudziądzki",
    "lon": "19.08556",
    "lat": "53.51828",
    "zoom": "12",
    "url": "lasin",
    "districts": [],
    "label": "Łasin"
  },
  {
    "id": "89897",
    "text": "Łochowo, bydgoski, Kujawsko-pomorskie",
    "text_simple": "Łochowo",
    "text_gray": "bydgoski",
    "lon": "17.83898",
    "lat": "53.12214",
    "zoom": "12",
    "url": "lochowo",
    "districts": [],
    "label": "Łochowo"
  },
  {
    "id": "50081",
    "text": "Łubianka, toruński, Kujawsko-pomorskie",
    "text_simple": "Łubianka",
    "text_gray": "toruński",
    "lon": "18.47906",
    "lat": "53.13594",
    "zoom": "12",
    "url": "lubianka_50081",
    "districts": [],
    "label": "Łubianka"
  },
  {
    "id": "138349",
    "text": "Łysomice, toruński, Kujawsko-pomorskie",
    "text_simple": "Łysomice",
    "text_gray": "toruński",
    "lon": "18.62221",
    "lat": "53.08551",
    "zoom": "12",
    "url": "lysomice_138349",
    "districts": [],
    "label": "Łysomice"
  },
  {
    "id": "137747",
    "text": "Łążynek, toruński, Kujawsko-pomorskie",
    "text_simple": "Łążynek",
    "text_gray": "toruński",
    "lon": "18.88288",
    "lat": "53.02803",
    "zoom": "12",
    "url": "lazynek",
    "districts": [],
    "label": "Łążynek"
  },
  {
    "id": "74449",
    "text": "Śliwice, tucholski, Kujawsko-pomorskie",
    "text_simple": "Śliwice",
    "text_gray": "tucholski",
    "lon": "18.18207",
    "lat": "53.71413",
    "zoom": "12",
    "url": "sliwice_74449",
    "districts": [],
    "label": "Śliwice"
  },
  {
    "id": "74511",
    "text": "Świecie, świecki, Kujawsko-pomorskie",
    "text_simple": "Świecie",
    "text_gray": "świecki",
    "lon": "18.44439",
    "lat": "53.40709",
    "zoom": "12",
    "url": "swiecie",
    "districts": [],
    "label": "Świecie"
  },
  {
    "id": "41793",
    "text": "Żnin, żniński, Kujawsko-pomorskie",
    "text_simple": "Żnin",
    "text_gray": "żniński",
    "lon": "17.73255",
    "lat": "52.84800",
    "zoom": "12",
    "url": "znin",
    "districts": [],
    "label": "Żnin"
  },
  {
    "id": "2217",
    "text": "Adamów, łukowski, Lubelskie",
    "text_simple": "Adamów",
    "text_gray": "łukowski",
    "lon": "22.26061",
    "lat": "51.74375",
    "zoom": "12",
    "url": "adamow_2217",
    "districts": [],
    "label": "Adamów"
  },
  {
    "id": "1725",
    "text": "Annopol, kraśnicki, Lubelskie",
    "text_simple": "Annopol",
    "text_gray": "kraśnicki",
    "lon": "21.86002",
    "lat": "50.88556",
    "zoom": "12",
    "url": "annopol_1725",
    "districts": [],
    "label": "Annopol"
  },
  {
    "id": "2309",
    "text": "Baranów, puławski, Lubelskie",
    "text_simple": "Baranów",
    "text_gray": "puławski",
    "lon": "22.13675",
    "lat": "51.55741",
    "zoom": "12",
    "url": "baranow_2309",
    "districts": [],
    "label": "Baranów"
  },
  {
    "id": "2449",
    "text": "Bełżec, tomaszowski, Lubelskie",
    "text_simple": "Bełżec",
    "text_gray": "tomaszowski",
    "lon": "23.43873",
    "lat": "50.38427",
    "zoom": "12",
    "url": "belzec",
    "districts": [],
    "label": "Bełżec"
  },
  {
    "id": "1507",
    "text": "Bełżyce, lubelski, Lubelskie",
    "text_simple": "Bełżyce",
    "text_gray": "lubelski",
    "lon": "22.28600",
    "lat": "51.17378",
    "zoom": "12",
    "url": "belzyce",
    "districts": [],
    "label": "Bełżyce"
  },
  {
    "id": "1555",
    "text": "Biała Podlaska, Lubelskie",
    "text_simple": "Biała Podlaska",
    "text_gray": "Lubelskie",
    "lon": "23.11088",
    "lat": "52.04282",
    "zoom": "12",
    "url": "biala-podlaska",
    "districts": [],
    "label": "Biała Podlaska"
  },
  {
    "id": "21423",
    "text": "Biłgoraj, biłgorajski, Lubelskie",
    "text_simple": "Biłgoraj",
    "text_gray": "biłgorajski",
    "lon": "22.72358",
    "lat": "50.53669",
    "zoom": "12",
    "url": "bilgoraj",
    "districts": [],
    "label": "Biłgoraj"
  },
  {
    "id": "60737",
    "text": "Borki, radzyński, Lubelskie",
    "text_simple": "Borki",
    "text_gray": "radzyński",
    "lon": "22.52628",
    "lat": "51.71927",
    "zoom": "12",
    "url": "borki_60737",
    "districts": [],
    "label": "Borki"
  },
  {
    "id": "22157",
    "text": "Bychawa, lubelski, Lubelskie",
    "text_simple": "Bychawa",
    "text_gray": "lubelski",
    "lon": "22.53739",
    "lat": "51.01295",
    "zoom": "12",
    "url": "bychawa",
    "districts": [],
    "label": "Bychawa"
  },
  {
    "id": "4271",
    "text": "Chełm, Lubelskie",
    "text_simple": "Chełm",
    "text_gray": "Lubelskie",
    "lon": "23.47468",
    "lat": "51.13296",
    "zoom": "12",
    "url": "chelm",
    "districts": [],
    "label": "Chełm"
  },
  {
    "id": "43427",
    "text": "Chodel, opolski, Lubelskie",
    "text_simple": "Chodel",
    "text_gray": "opolski",
    "lon": "22.13393",
    "lat": "51.11213",
    "zoom": "12",
    "url": "chodel",
    "districts": [],
    "label": "Chodel"
  },
  {
    "id": "43451",
    "text": "Chomęciska Małe, zamojski, Lubelskie",
    "text_simple": "Chomęciska Małe",
    "text_gray": "zamojski",
    "lon": "23.20370",
    "lat": "50.81035",
    "zoom": "12",
    "url": "chomeciska-male",
    "districts": [],
    "label": "Chomęciska Małe"
  },
  {
    "id": "22733",
    "text": "Ciecierzyn, lubelski, Lubelskie",
    "text_simple": "Ciecierzyn",
    "text_gray": "lubelski",
    "lon": "22.60876",
    "lat": "51.31716",
    "zoom": "12",
    "url": "ciecierzyn_22733",
    "districts": [],
    "label": "Ciecierzyn"
  },
  {
    "id": "43671",
    "text": "Cyców, łęczyński, Lubelskie",
    "text_simple": "Cyców",
    "text_gray": "łęczyński",
    "lon": "23.13462",
    "lat": "51.30234",
    "zoom": "12",
    "url": "cycow",
    "districts": [],
    "label": "Cyców"
  },
  {
    "id": "43805",
    "text": "Czemierniki, radzyński, Lubelskie",
    "text_simple": "Czemierniki",
    "text_gray": "radzyński",
    "lon": "22.63778",
    "lat": "51.67238",
    "zoom": "12",
    "url": "czemierniki",
    "districts": [],
    "label": "Czemierniki"
  },
  {
    "id": "26361",
    "text": "Drelów, bialski, Lubelskie",
    "text_simple": "Drelów",
    "text_gray": "bialski",
    "lon": "22.87206",
    "lat": "51.91117",
    "zoom": "12",
    "url": "drelow",
    "districts": [],
    "label": "Drelów"
  },
  {
    "id": "26115",
    "text": "Dęblin, rycki, Lubelskie",
    "text_simple": "Dęblin",
    "text_gray": "rycki",
    "lon": "21.85935",
    "lat": "51.56609",
    "zoom": "12",
    "url": "deblin",
    "districts": [],
    "label": "Dęblin"
  },
  {
    "id": "44131",
    "text": "Dębowa Kłoda, parczewski, Lubelskie",
    "text_simple": "Dębowa Kłoda",
    "text_gray": "parczewski",
    "lon": "23.00741",
    "lat": "51.59553",
    "zoom": "12",
    "url": "debowa-kloda",
    "districts": [],
    "label": "Dębowa Kłoda"
  },
  {
    "id": "26603",
    "text": "Fajsławice, krasnostawski, Lubelskie",
    "text_simple": "Fajsławice",
    "text_gray": "krasnostawski",
    "lon": "22.96140",
    "lat": "51.09772",
    "zoom": "12",
    "url": "fajslawice",
    "districts": [],
    "label": "Fajsławice"
  },
  {
    "id": "114239",
    "text": "Firlej, lubartowski, Lubelskie",
    "text_simple": "Firlej",
    "text_gray": "lubartowski",
    "lon": "22.50874",
    "lat": "51.55722",
    "zoom": "12",
    "url": "firlej_114239",
    "districts": [],
    "label": "Firlej"
  },
  {
    "id": "23775",
    "text": "Frampol, biłgorajski, Lubelskie",
    "text_simple": "Frampol",
    "text_gray": "biłgorajski",
    "lon": "22.67170",
    "lat": "50.67054",
    "zoom": "12",
    "url": "frampol",
    "districts": [],
    "label": "Frampol"
  },
  {
    "id": "132933",
    "text": "Garbów I, lubelski, Lubelskie",
    "text_simple": "Garbów I",
    "text_gray": "lubelski",
    "lon": "22.34136",
    "lat": "51.35067",
    "zoom": "12",
    "url": "garbow-i",
    "districts": [],
    "label": "Garbów I"
  },
  {
    "id": "114837",
    "text": "Glinne, łukowski, Lubelskie",
    "text_simple": "Glinne",
    "text_gray": "łukowski",
    "lon": "22.28157",
    "lat": "51.75810",
    "zoom": "12",
    "url": "glinne_114837",
    "districts": [],
    "label": "Glinne"
  },
  {
    "id": "115231",
    "text": "Grabów Szlachecki, rycki, Lubelskie",
    "text_simple": "Grabów Szlachecki",
    "text_gray": "rycki",
    "lon": "22.09858",
    "lat": "51.70046",
    "zoom": "12",
    "url": "grabow-szlachecki",
    "districts": [],
    "label": "Grabów Szlachecki"
  },
  {
    "id": "27415",
    "text": "Góra Puławska, gm. Puławy, puławski, Lubelskie",
    "text_simple": "Góra Puławska",
    "text_gray": "puławski",
    "lon": "21.95676",
    "lat": "51.42209",
    "zoom": "12",
    "url": "gora-pulawska",
    "districts": [],
    "label": "Góra Puławska"
  },
  {
    "id": "85973",
    "text": "Hrubieszów, hrubieszowski, Lubelskie",
    "text_simple": "Hrubieszów",
    "text_gray": "hrubieszowski",
    "lon": "23.89790",
    "lat": "50.80882",
    "zoom": "12",
    "url": "hrubieszow",
    "districts": [],
    "label": "Hrubieszów"
  },
  {
    "id": "134415",
    "text": "Janów Lubelski, janowski, Lubelskie",
    "text_simple": "Janów Lubelski",
    "text_gray": "janowski",
    "lon": "22.41060",
    "lat": "50.70599",
    "zoom": "12",
    "url": "janow-lubelski",
    "districts": [],
    "label": "Janów Lubelski"
  },
  {
    "id": "64309",
    "text": "Janów Podlaski, bialski, Lubelskie",
    "text_simple": "Janów Podlaski",
    "text_gray": "bialski",
    "lon": "23.21100",
    "lat": "52.19600",
    "zoom": "12",
    "url": "janow-podlaski",
    "districts": [],
    "label": "Janów Podlaski"
  },
  {
    "id": "28283",
    "text": "Jastków, lubelski, Lubelskie",
    "text_simple": "Jastków",
    "text_gray": "lubelski",
    "lon": "22.43631",
    "lat": "51.30254",
    "zoom": "12",
    "url": "jastkow",
    "districts": [],
    "label": "Jastków"
  },
  {
    "id": "116039",
    "text": "Józefów, biłgorajski, Lubelskie",
    "text_simple": "Józefów",
    "text_gray": "biłgorajski",
    "lon": "23.05377",
    "lat": "50.48121",
    "zoom": "12",
    "url": "jozefow_116039",
    "districts": [],
    "label": "Józefów"
  },
  {
    "id": "7577",
    "text": "Kamionka, lubartowski, Lubelskie",
    "text_simple": "Kamionka",
    "text_gray": "lubartowski",
    "lon": "22.46367",
    "lat": "51.47070",
    "zoom": "12",
    "url": "kamionka_7577",
    "districts": [],
    "label": "Kamionka"
  },
  {
    "id": "116397",
    "text": "Karczmiska Pierwsze, opolski, Lubelskie",
    "text_simple": "Karczmiska Pierwsze",
    "text_gray": "opolski",
    "lon": "21.99214",
    "lat": "51.23418",
    "zoom": "12",
    "url": "karczmiska-pierwsze",
    "districts": [],
    "label": "Karczmiska Pierwsze"
  },
  {
    "id": "29001",
    "text": "Kazimierz Dolny, puławski, Lubelskie",
    "text_simple": "Kazimierz Dolny",
    "text_gray": "puławski",
    "lon": "21.94895",
    "lat": "51.32266",
    "zoom": "12",
    "url": "kazimierz-dolny",
    "districts": [],
    "label": "Kazimierz Dolny"
  },
  {
    "id": "83305",
    "text": "Kock, lubartowski, Lubelskie",
    "text_simple": "Kock",
    "text_gray": "lubartowski",
    "lon": "22.44786",
    "lat": "51.63945",
    "zoom": "12",
    "url": "kock",
    "districts": [],
    "label": "Kock"
  },
  {
    "id": "87747",
    "text": "Komarówka Podlaska, radzyński, Lubelskie",
    "text_simple": "Komarówka Podlaska",
    "text_gray": "radzyński",
    "lon": "22.94526",
    "lat": "51.80260",
    "zoom": "12",
    "url": "komarowka-podlaska",
    "districts": [],
    "label": "Komarówka Podlaska"
  },
  {
    "id": "29669",
    "text": "Konopnica, lubelski, Lubelskie",
    "text_simple": "Konopnica",
    "text_gray": "lubelski",
    "lon": "22.45948",
    "lat": "51.22547",
    "zoom": "12",
    "url": "konopnica_29669",
    "districts": [],
    "label": "Konopnica"
  },
  {
    "id": "65779",
    "text": "Konstantynów, bialski, Lubelskie",
    "text_simple": "Konstantynów",
    "text_gray": "bialski",
    "lon": "23.08126",
    "lat": "52.20927",
    "zoom": "12",
    "url": "konstantynow_65779",
    "districts": [],
    "label": "Konstantynów"
  },
  {
    "id": "29693",
    "text": "Końskowola, puławski, Lubelskie",
    "text_simple": "Końskowola",
    "text_gray": "puławski",
    "lon": "22.05174",
    "lat": "51.40933",
    "zoom": "12",
    "url": "konskowola",
    "districts": [],
    "label": "Końskowola"
  },
  {
    "id": "66543",
    "text": "Krasnobród, zamojski, Lubelskie",
    "text_simple": "Krasnobród",
    "text_gray": "zamojski",
    "lon": "23.21343",
    "lat": "50.54408",
    "zoom": "12",
    "url": "krasnobrod",
    "districts": [],
    "label": "Krasnobród"
  },
  {
    "id": "136619",
    "text": "Krasnystaw, krasnostawski, Lubelskie",
    "text_simple": "Krasnystaw",
    "text_gray": "krasnostawski",
    "lon": "23.17521",
    "lat": "50.98628",
    "zoom": "12",
    "url": "krasnystaw",
    "districts": [],
    "label": "Krasnystaw"
  },
  {
    "id": "30429",
    "text": "Kraśnik, kraśnicki, Lubelskie",
    "text_simple": "Kraśnik",
    "text_gray": "kraśnicki",
    "lon": "22.22704",
    "lat": "50.92237",
    "zoom": "12",
    "url": "krasnik",
    "districts": [],
    "label": "Kraśnik"
  },
  {
    "id": "84475",
    "text": "Krzywda, łukowski, Lubelskie",
    "text_simple": "Krzywda",
    "text_gray": "łukowski",
    "lon": "22.20466",
    "lat": "51.79394",
    "zoom": "12",
    "url": "krzywda_84475",
    "districts": [],
    "label": "Krzywda"
  },
  {
    "id": "118521",
    "text": "Kurów, puławski, Lubelskie",
    "text_simple": "Kurów",
    "text_gray": "puławski",
    "lon": "22.18723",
    "lat": "51.38883",
    "zoom": "12",
    "url": "kurow_118521",
    "districts": [],
    "label": "Kurów"
  },
  {
    "id": "117077",
    "text": "Kłoczew, rycki, Lubelskie",
    "text_simple": "Kłoczew",
    "text_gray": "rycki",
    "lon": "21.96366",
    "lat": "51.72184",
    "zoom": "12",
    "url": "kloczew",
    "districts": [],
    "label": "Kłoczew"
  },
  {
    "id": "67313",
    "text": "Lubartów, lubartowski, Lubelskie",
    "text_simple": "Lubartów",
    "text_gray": "lubartowski",
    "lon": "22.60895",
    "lat": "51.45928",
    "zoom": "12",
    "url": "lubartow",
    "districts": [],
    "label": "Lubartów"
  },
  {
    "id": "10119",
    "text": "Lublin, Lubelskie",
    "text_simple": "Lublin",
    "text_gray": "Lubelskie",
    "lon": "22.55257",
    "lat": "51.23955",
    "zoom": "13",
    "url": "lublin",
    "districts": [],
    "label": "Lublin"
  },
  {
    "id": "50403",
    "text": "Markuszów, puławski, Lubelskie",
    "text_simple": "Markuszów",
    "text_gray": "puławski",
    "lon": "22.26281",
    "lat": "51.37432",
    "zoom": "12",
    "url": "markuszow",
    "districts": [],
    "label": "Markuszów"
  },
  {
    "id": "138721",
    "text": "Michów, lubartowski, Lubelskie",
    "text_simple": "Michów",
    "text_gray": "lubartowski",
    "lon": "22.31028",
    "lat": "51.52167",
    "zoom": "12",
    "url": "michow_138721",
    "districts": [],
    "label": "Michów"
  },
  {
    "id": "138851",
    "text": "Milejów, łęczyński, Lubelskie",
    "text_simple": "Milejów",
    "text_gray": "łęczyński",
    "lon": "22.92795",
    "lat": "51.22235",
    "zoom": "12",
    "url": "milejow_138851",
    "districts": [],
    "label": "Milejów"
  },
  {
    "id": "68769",
    "text": "Milejów-Osada, łęczyński, Lubelskie",
    "text_simple": "Milejów-Osada",
    "text_gray": "łęczyński",
    "lon": "22.92692",
    "lat": "51.23158",
    "zoom": "12",
    "url": "milejow-osada",
    "districts": [],
    "label": "Milejów-Osada"
  },
  {
    "id": "68731",
    "text": "Międzyrzec Podlaski, bialski, Lubelskie",
    "text_simple": "Międzyrzec Podlaski",
    "text_gray": "bialski",
    "lon": "22.78325",
    "lat": "51.98589",
    "zoom": "12",
    "url": "miedzyrzec-podlaski",
    "districts": [],
    "label": "Międzyrzec Podlaski"
  },
  {
    "id": "91081",
    "text": "Modliborzyce, janowski, Lubelskie",
    "text_simple": "Modliborzyce",
    "text_gray": "janowski",
    "lon": "22.33063",
    "lat": "50.75307",
    "zoom": "12",
    "url": "modliborzyce_91081",
    "districts": [],
    "label": "Modliborzyce"
  },
  {
    "id": "120827",
    "text": "Motycz, lubelski, Lubelskie",
    "text_simple": "Motycz",
    "text_gray": "lubelski",
    "lon": "22.38106",
    "lat": "51.24016",
    "zoom": "12",
    "url": "motycz",
    "districts": [],
    "label": "Motycz"
  },
  {
    "id": "12025",
    "text": "Nałęczów, puławski, Lubelskie",
    "text_simple": "Nałęczów",
    "text_gray": "puławski",
    "lon": "22.21664",
    "lat": "51.28686",
    "zoom": "12",
    "url": "naleczow",
    "districts": [],
    "label": "Nałęczów"
  },
  {
    "id": "102581",
    "text": "Niedrzwica Duża, lubelski, Lubelskie",
    "text_simple": "Niedrzwica Duża",
    "text_gray": "lubelski",
    "lon": "22.39014",
    "lat": "51.11453",
    "zoom": "12",
    "url": "niedrzwica-duza",
    "districts": [],
    "label": "Niedrzwica Duża"
  },
  {
    "id": "69229",
    "text": "Niedrzwica Kościelna, lubelski, Lubelskie",
    "text_simple": "Niedrzwica Kościelna",
    "text_gray": "lubelski",
    "lon": "22.36741",
    "lat": "51.08268",
    "zoom": "12",
    "url": "niedrzwica-koscielna",
    "districts": [],
    "label": "Niedrzwica Kościelna"
  },
  {
    "id": "121063",
    "text": "Niemce, lubelski, Lubelskie",
    "text_simple": "Niemce",
    "text_gray": "lubelski",
    "lon": "22.63099",
    "lat": "51.35863",
    "zoom": "12",
    "url": "niemce",
    "districts": [],
    "label": "Niemce"
  },
  {
    "id": "140129",
    "text": "Opole Lubelskie, opolski, Lubelskie",
    "text_simple": "Opole Lubelskie",
    "text_gray": "opolski",
    "lon": "21.96701",
    "lat": "51.14663",
    "zoom": "12",
    "url": "opole-lubelskie",
    "districts": [],
    "label": "Opole Lubelskie"
  },
  {
    "id": "52127",
    "text": "Ostrów Lubelski, lubartowski, Lubelskie",
    "text_simple": "Ostrów Lubelski",
    "text_gray": "lubartowski",
    "lon": "22.85794",
    "lat": "51.49592",
    "zoom": "12",
    "url": "ostrow-lubelski",
    "districts": [],
    "label": "Ostrów Lubelski"
  },
  {
    "id": "122225",
    "text": "Parczew, parczewski, Lubelskie",
    "text_simple": "Parczew",
    "text_gray": "parczewski",
    "lon": "22.91263",
    "lat": "51.63806",
    "zoom": "12",
    "url": "parczew",
    "districts": [],
    "label": "Parczew"
  },
  {
    "id": "70513",
    "text": "Piaski, świdnicki, Lubelskie",
    "text_simple": "Piaski",
    "text_gray": "świdnicki",
    "lon": "22.84996",
    "lat": "51.13749",
    "zoom": "12",
    "url": "piaski_70513",
    "districts": [],
    "label": "Piaski"
  },
  {
    "id": "70681",
    "text": "Piotrowice, lubelski, Lubelskie",
    "text_simple": "Piotrowice",
    "text_gray": "lubelski",
    "lon": "22.47856",
    "lat": "51.08617",
    "zoom": "12",
    "url": "piotrowice_70681",
    "districts": [],
    "label": "Piotrowice"
  },
  {
    "id": "13897",
    "text": "Poniatowa, opolski, Lubelskie",
    "text_simple": "Poniatowa",
    "text_gray": "opolski",
    "lon": "22.06949",
    "lat": "51.19099",
    "zoom": "12",
    "url": "poniatowa",
    "districts": [],
    "label": "Poniatowa"
  },
  {
    "id": "71757",
    "text": "Puławy, puławski, Lubelskie",
    "text_simple": "Puławy",
    "text_gray": "puławski",
    "lon": "21.95676",
    "lat": "51.42209",
    "zoom": "12",
    "url": "pulawy",
    "districts": [],
    "label": "Puławy"
  },
  {
    "id": "140799",
    "text": "Płoskie, zamojski, Lubelskie",
    "text_simple": "Płoskie",
    "text_gray": "zamojski",
    "lon": "23.18219",
    "lat": "50.72215",
    "zoom": "12",
    "url": "ploskie_140799",
    "districts": [],
    "label": "Płoskie"
  },
  {
    "id": "71833",
    "text": "Radawiec Duży, lubelski, Lubelskie",
    "text_simple": "Radawiec Duży",
    "text_gray": "lubelski",
    "lon": "22.39079",
    "lat": "51.19656",
    "zoom": "12",
    "url": "radawiec-duzy",
    "districts": [],
    "label": "Radawiec Duży"
  },
  {
    "id": "14721",
    "text": "Radzyń Podlaski, radzyński, Lubelskie",
    "text_simple": "Radzyń Podlaski",
    "text_gray": "radzyński",
    "lon": "22.62370",
    "lat": "51.78528",
    "zoom": "12",
    "url": "radzyn-podlaski",
    "districts": [],
    "label": "Radzyń Podlaski"
  },
  {
    "id": "35703",
    "text": "Ratoszyn Pierwszy, opolski, Lubelskie",
    "text_simple": "Ratoszyn Pierwszy",
    "text_gray": "opolski",
    "lon": "22.15716",
    "lat": "51.08417",
    "zoom": "12",
    "url": "ratoszyn-pierwszy",
    "districts": [],
    "label": "Ratoszyn Pierwszy"
  },
  {
    "id": "94029",
    "text": "Rejowiec, chełmski, Lubelskie",
    "text_simple": "Rejowiec",
    "text_gray": "chełmski",
    "lon": "23.28478",
    "lat": "51.09146",
    "zoom": "12",
    "url": "rejowiec_94029",
    "districts": [],
    "label": "Rejowiec"
  },
  {
    "id": "35729",
    "text": "Rejowiec Fabryczny, chełmski, Lubelskie",
    "text_simple": "Rejowiec Fabryczny",
    "text_gray": "chełmski",
    "lon": "23.24467",
    "lat": "51.11676",
    "zoom": "12",
    "url": "rejowiec-fabryczny",
    "districts": [],
    "label": "Rejowiec Fabryczny"
  },
  {
    "id": "124245",
    "text": "Ryki, rycki, Lubelskie",
    "text_simple": "Ryki",
    "text_gray": "rycki",
    "lon": "21.93399",
    "lat": "51.62642",
    "zoom": "12",
    "url": "ryki",
    "districts": [],
    "label": "Ryki"
  },
  {
    "id": "124465",
    "text": "Serokomla, łukowski, Lubelskie",
    "text_simple": "Serokomla",
    "text_gray": "łukowski",
    "lon": "22.33533",
    "lat": "51.70065",
    "zoom": "12",
    "url": "serokomla",
    "districts": [],
    "label": "Serokomla"
  },
  {
    "id": "124629",
    "text": "Sitaniec, zamojski, Lubelskie",
    "text_simple": "Sitaniec",
    "text_gray": "zamojski",
    "lon": "23.24395",
    "lat": "50.75161",
    "zoom": "12",
    "url": "sitaniec",
    "districts": [],
    "label": "Sitaniec"
  },
  {
    "id": "73581",
    "text": "Stoczek Łukowski, łukowski, Lubelskie",
    "text_simple": "Stoczek Łukowski",
    "text_gray": "łukowski",
    "lon": "21.96901",
    "lat": "51.96265",
    "zoom": "12",
    "url": "stoczek-lukowski",
    "districts": [],
    "label": "Stoczek Łukowski"
  },
  {
    "id": "16393",
    "text": "Stężyca, rycki, Lubelskie",
    "text_simple": "Stężyca",
    "text_gray": "rycki",
    "lon": "21.77238",
    "lat": "51.58142",
    "zoom": "12",
    "url": "stezyca",
    "districts": [],
    "label": "Stężyca"
  },
  {
    "id": "107247",
    "text": "Szczebrzeszyn, zamojski, Lubelskie",
    "text_simple": "Szczebrzeszyn",
    "text_gray": "zamojski",
    "lon": "22.98319",
    "lat": "50.69440",
    "zoom": "12",
    "url": "szczebrzeszyn",
    "districts": [],
    "label": "Szczebrzeszyn"
  },
  {
    "id": "126331",
    "text": "Tarnogród, biłgorajski, Lubelskie",
    "text_simple": "Tarnogród",
    "text_gray": "biłgorajski",
    "lon": "22.74334",
    "lat": "50.36062",
    "zoom": "12",
    "url": "tarnogrod",
    "districts": [],
    "label": "Tarnogród"
  },
  {
    "id": "144691",
    "text": "Terespol, bialski, Lubelskie",
    "text_simple": "Terespol",
    "text_gray": "bialski",
    "lon": "23.60896",
    "lat": "52.07290",
    "zoom": "12",
    "url": "terespol_144691",
    "districts": [],
    "label": "Terespol"
  },
  {
    "id": "96667",
    "text": "Tomaszów Lubelski, tomaszowski, Lubelskie",
    "text_simple": "Tomaszów Lubelski",
    "text_gray": "tomaszowski",
    "lon": "23.41846",
    "lat": "50.44568",
    "zoom": "12",
    "url": "tomaszow-lubelski",
    "districts": [],
    "label": "Tomaszów Lubelski"
  },
  {
    "id": "17515",
    "text": "Trawniki, świdnicki, Lubelskie",
    "text_simple": "Trawniki",
    "text_gray": "świdnicki",
    "lon": "23.00476",
    "lat": "51.13534",
    "zoom": "12",
    "url": "trawniki",
    "districts": [],
    "label": "Trawniki"
  },
  {
    "id": "56683",
    "text": "Turka, gm. Wólka, lubelski, Lubelskie",
    "text_simple": "Turka",
    "text_gray": "lubelski",
    "lon": "22.67420",
    "lat": "51.28307",
    "zoom": "12",
    "url": "turka_56683",
    "districts": [],
    "label": "Turka"
  },
  {
    "id": "108215",
    "text": "Turobin, biłgorajski, Lubelskie",
    "text_simple": "Turobin",
    "text_gray": "biłgorajski",
    "lon": "22.74459",
    "lat": "50.82280",
    "zoom": "12",
    "url": "turobin",
    "districts": [],
    "label": "Turobin"
  },
  {
    "id": "145059",
    "text": "Urszulin, włodawski, Lubelskie",
    "text_simple": "Urszulin",
    "text_gray": "włodawski",
    "lon": "23.19243",
    "lat": "51.39440",
    "zoom": "12",
    "url": "urszulin_145059",
    "districts": [],
    "label": "Urszulin"
  },
  {
    "id": "96997",
    "text": "Urzędów, kraśnicki, Lubelskie",
    "text_simple": "Urzędów",
    "text_gray": "kraśnicki",
    "lon": "22.14434",
    "lat": "50.99367",
    "zoom": "12",
    "url": "urzedow",
    "districts": [],
    "label": "Urzędów"
  },
  {
    "id": "98213",
    "text": "Werbkowice, hrubieszowski, Lubelskie",
    "text_simple": "Werbkowice",
    "text_gray": "hrubieszowski",
    "lon": "23.76874",
    "lat": "50.75315",
    "zoom": "12",
    "url": "werbkowice",
    "districts": [],
    "label": "Werbkowice"
  },
  {
    "id": "19345",
    "text": "Wisznice, bialski, Lubelskie",
    "text_simple": "Wisznice",
    "text_gray": "bialski",
    "lon": "23.20994",
    "lat": "51.78815",
    "zoom": "12",
    "url": "wisznice",
    "districts": [],
    "label": "Wisznice"
  },
  {
    "id": "98619",
    "text": "Wohyń, radzyński, Lubelskie",
    "text_simple": "Wohyń",
    "text_gray": "radzyński",
    "lon": "22.78592",
    "lat": "51.75580",
    "zoom": "12",
    "url": "wohyn",
    "districts": [],
    "label": "Wohyń"
  },
  {
    "id": "19437",
    "text": "Wojcieszków, łukowski, Lubelskie",
    "text_simple": "Wojcieszków",
    "text_gray": "łukowski",
    "lon": "22.31634",
    "lat": "51.76784",
    "zoom": "12",
    "url": "wojcieszkow",
    "districts": [],
    "label": "Wojcieszków"
  },
  {
    "id": "109623",
    "text": "Wąwolnica, puławski, Lubelskie",
    "text_simple": "Wąwolnica",
    "text_gray": "puławski",
    "lon": "22.14823",
    "lat": "51.29365",
    "zoom": "12",
    "url": "wawolnica_109623",
    "districts": [],
    "label": "Wąwolnica"
  },
  {
    "id": "58515",
    "text": "Włodawa, włodawski, Lubelskie",
    "text_simple": "Włodawa",
    "text_gray": "włodawski",
    "lon": "23.55280",
    "lat": "51.55029",
    "zoom": "12",
    "url": "wlodawa",
    "districts": [],
    "label": "Włodawa"
  },
  {
    "id": "20507",
    "text": "Zamość, Lubelskie",
    "text_simple": "Zamość",
    "text_gray": "Lubelskie",
    "lon": "23.26006",
    "lat": "50.72105",
    "zoom": "12",
    "url": "zamosc",
    "districts": [],
    "label": "Zamość"
  },
  {
    "id": "60061",
    "text": "Zwierzyniec, zamojski, Lubelskie",
    "text_simple": "Zwierzyniec",
    "text_gray": "zamojski",
    "lon": "22.97321",
    "lat": "50.61092",
    "zoom": "12",
    "url": "zwierzyniec_60061",
    "districts": [],
    "label": "Zwierzyniec"
  },
  {
    "id": "4813",
    "text": "Ćmiłów, lubelski, Lubelskie",
    "text_simple": "Ćmiłów",
    "text_gray": "lubelski",
    "lon": "22.58372",
    "lat": "51.16124",
    "zoom": "12",
    "url": "cmilow",
    "districts": [],
    "label": "Ćmiłów"
  },
  {
    "id": "100847",
    "text": "Łabunie, zamojski, Lubelskie",
    "text_simple": "Łabunie",
    "text_gray": "zamojski",
    "lon": "23.37062",
    "lat": "50.65210",
    "zoom": "12",
    "url": "labunie",
    "districts": [],
    "label": "Łabunie"
  },
  {
    "id": "10413",
    "text": "Łaszczów, tomaszowski, Lubelskie",
    "text_simple": "Łaszczów",
    "text_gray": "tomaszowski",
    "lon": "23.71868",
    "lat": "50.52906",
    "zoom": "12",
    "url": "laszczow",
    "districts": [],
    "label": "Łaszczów"
  },
  {
    "id": "137823",
    "text": "Łopiennik Górny, krasnostawski, Lubelskie",
    "text_simple": "Łopiennik Górny",
    "text_gray": "krasnostawski",
    "lon": "23.01939",
    "lat": "51.04243",
    "zoom": "12",
    "url": "lopiennik-gorny",
    "districts": [],
    "label": "Łopiennik Górny"
  },
  {
    "id": "11099",
    "text": "Łuków, łukowski, Lubelskie",
    "text_simple": "Łuków",
    "text_gray": "łukowski",
    "lon": "22.37845",
    "lat": "51.93176",
    "zoom": "12",
    "url": "lukow",
    "districts": [],
    "label": "Łuków"
  },
  {
    "id": "31463",
    "text": "Łęczna, łęczyński, Lubelskie",
    "text_simple": "Łęczna",
    "text_gray": "łęczyński",
    "lon": "22.87957",
    "lat": "51.30222",
    "zoom": "12",
    "url": "leczna",
    "districts": [],
    "label": "Łęczna"
  },
  {
    "id": "56287",
    "text": "Świdnik, świdnicki, Lubelskie",
    "text_simple": "Świdnik",
    "text_gray": "świdnicki",
    "lon": "22.69477",
    "lat": "51.20013",
    "zoom": "12",
    "url": "swidnik",
    "districts": [],
    "label": "Świdnik"
  },
  {
    "id": "41811",
    "text": "Żółkiewka, krasnostawski, Lubelskie",
    "text_simple": "Żółkiewka",
    "text_gray": "krasnostawski",
    "lon": "22.83541",
    "lat": "50.90912",
    "zoom": "12",
    "url": "zolkiewka",
    "districts": [],
    "label": "Żółkiewka"
  },
  {
    "id": "113539",
    "text": "Babimost, zielonogórski, Lubuskie",
    "text_simple": "Babimost",
    "text_gray": "zielonogórski",
    "lon": "15.83053",
    "lat": "52.16372",
    "zoom": "12",
    "url": "babimost",
    "districts": [],
    "label": "Babimost"
  },
  {
    "id": "2553",
    "text": "Baczyna, gorzowski, Lubuskie",
    "text_simple": "Baczyna",
    "text_gray": "gorzowski",
    "lon": "15.11559",
    "lat": "52.75459",
    "zoom": "12",
    "url": "baczyna_2553",
    "districts": [],
    "label": "Baczyna"
  },
  {
    "id": "60589",
    "text": "Bobrowniki, nowosolski, Lubuskie",
    "text_simple": "Bobrowniki",
    "text_gray": "nowosolski",
    "lon": "15.73815",
    "lat": "51.86328",
    "zoom": "12",
    "url": "bobrowniki_60589",
    "districts": [],
    "label": "Bobrowniki"
  },
  {
    "id": "42427",
    "text": "Bogdaniec, gorzowski, Lubuskie",
    "text_simple": "Bogdaniec",
    "text_gray": "gorzowski",
    "lon": "15.07064",
    "lat": "52.68865",
    "zoom": "12",
    "url": "bogdaniec",
    "districts": [],
    "label": "Bogdaniec"
  },
  {
    "id": "130849",
    "text": "Borów Wielki, nowosolski, Lubuskie",
    "text_simple": "Borów Wielki",
    "text_gray": "nowosolski",
    "lon": "15.63420",
    "lat": "51.67892",
    "zoom": "12",
    "url": "borow-wielki",
    "districts": [],
    "label": "Borów Wielki"
  },
  {
    "id": "42877",
    "text": "Brzozowiec, gorzowski, Lubuskie",
    "text_simple": "Brzozowiec",
    "text_gray": "gorzowski",
    "lon": "15.37441",
    "lat": "52.65412",
    "zoom": "12",
    "url": "brzozowiec_42877",
    "districts": [],
    "label": "Brzozowiec"
  },
  {
    "id": "4203",
    "text": "Bytom Odrzański, nowosolski, Lubuskie",
    "text_simple": "Bytom Odrzański",
    "text_gray": "nowosolski",
    "lon": "15.82706",
    "lat": "51.73095",
    "zoom": "12",
    "url": "bytom-odrzanski",
    "districts": [],
    "label": "Bytom Odrzański"
  },
  {
    "id": "4461",
    "text": "Chwalęcice, gorzowski, Lubuskie",
    "text_simple": "Chwalęcice",
    "text_gray": "gorzowski",
    "lon": "15.20820",
    "lat": "52.76792",
    "zoom": "12",
    "url": "chwalecice",
    "districts": [],
    "label": "Chwalęcice"
  },
  {
    "id": "43663",
    "text": "Cybinka, słubicki, Lubuskie",
    "text_simple": "Cybinka",
    "text_gray": "słubicki",
    "lon": "14.79715",
    "lat": "52.19416",
    "zoom": "12",
    "url": "cybinka",
    "districts": [],
    "label": "Cybinka"
  },
  {
    "id": "61957",
    "text": "Czerwieńsk, zielonogórski, Lubuskie",
    "text_simple": "Czerwieńsk",
    "text_gray": "zielonogórski",
    "lon": "15.42311",
    "lat": "52.01301",
    "zoom": "12",
    "url": "czerwiensk",
    "districts": [],
    "label": "Czerwieńsk"
  },
  {
    "id": "132295",
    "text": "Deszczno, gorzowski, Lubuskie",
    "text_simple": "Deszczno",
    "text_gray": "gorzowski",
    "lon": "15.31997",
    "lat": "52.66960",
    "zoom": "12",
    "url": "deszczno",
    "districts": [],
    "label": "Deszczno"
  },
  {
    "id": "62335",
    "text": "Dobiegniew, strzelecko-drezdenecki, Lubuskie",
    "text_simple": "Dobiegniew",
    "text_gray": "strzelecko-drezdenecki",
    "lon": "15.75364",
    "lat": "52.96982",
    "zoom": "12",
    "url": "dobiegniew",
    "districts": [],
    "label": "Dobiegniew"
  },
  {
    "id": "62473",
    "text": "Drezdenko, strzelecko-drezdenecki, Lubuskie",
    "text_simple": "Drezdenko",
    "text_gray": "strzelecko-drezdenecki",
    "lon": "15.83316",
    "lat": "52.83655",
    "zoom": "12",
    "url": "drezdenko",
    "districts": [],
    "label": "Drezdenko"
  },
  {
    "id": "132569",
    "text": "Droszków, zielonogórski, Lubuskie",
    "text_simple": "Droszków",
    "text_gray": "zielonogórski",
    "lon": "15.66181",
    "lat": "51.93104",
    "zoom": "12",
    "url": "droszkow_132569",
    "districts": [],
    "label": "Droszków"
  },
  {
    "id": "132615",
    "text": "Drzonków, zielonogórski, Lubuskie",
    "text_simple": "Drzonków",
    "text_gray": "zielonogórski",
    "lon": "15.56991",
    "lat": "51.89132",
    "zoom": "12",
    "url": "drzonkow",
    "districts": [],
    "label": "Drzonków"
  },
  {
    "id": "62209",
    "text": "Dąbrówka Wielkopolska, świebodziński, Lubuskie",
    "text_simple": "Dąbrówka Wielkopolska",
    "text_gray": "świebodziński",
    "lon": "15.80890",
    "lat": "52.27901",
    "zoom": "12",
    "url": "dabrowka-wielkopolska",
    "districts": [],
    "label": "Dąbrówka Wielkopolska"
  },
  {
    "id": "6331",
    "text": "Gorzów Wielkopolski, Lubuskie",
    "text_simple": "Gorzów Wielkopolski",
    "text_gray": "Lubuskie",
    "lon": "15.24028",
    "lat": "52.72918",
    "zoom": "12",
    "url": "gorzow",
    "districts": [],
    "label": "Gorzów Wielkopolski"
  },
  {
    "id": "6375",
    "text": "Gozdnica, żagański, Lubuskie",
    "text_simple": "Gozdnica",
    "text_gray": "żagański",
    "lon": "15.09736",
    "lat": "51.43689",
    "zoom": "12",
    "url": "gozdnica",
    "districts": [],
    "label": "Gozdnica"
  },
  {
    "id": "27493",
    "text": "Grabik, żarski, Lubuskie",
    "text_simple": "Grabik",
    "text_gray": "żarski",
    "lon": "15.11979",
    "lat": "51.65369",
    "zoom": "12",
    "url": "grabik",
    "districts": [],
    "label": "Grabik"
  },
  {
    "id": "85841",
    "text": "Gubin, krośnieński, Lubuskie",
    "text_simple": "Gubin",
    "text_gray": "krośnieński",
    "lon": "14.73707",
    "lat": "51.94796",
    "zoom": "12",
    "url": "gubin",
    "districts": [],
    "label": "Gubin"
  },
  {
    "id": "27477",
    "text": "Górzyca, słubicki, Lubuskie",
    "text_simple": "Górzyca",
    "text_gray": "słubicki",
    "lon": "14.65541",
    "lat": "52.49387",
    "zoom": "12",
    "url": "gorzyca_27477",
    "districts": [],
    "label": "Górzyca"
  },
  {
    "id": "81837",
    "text": "Iłowa, żagański, Lubuskie",
    "text_simple": "Iłowa",
    "text_gray": "żagański",
    "lon": "15.20213",
    "lat": "51.50268",
    "zoom": "12",
    "url": "ilowa_81837",
    "districts": [],
    "label": "Iłowa"
  },
  {
    "id": "7023",
    "text": "Janczewo, gorzowski, Lubuskie",
    "text_simple": "Janczewo",
    "text_gray": "gorzowski",
    "lon": "15.34848",
    "lat": "52.75608",
    "zoom": "12",
    "url": "janczewo",
    "districts": [],
    "label": "Janczewo"
  },
  {
    "id": "46149",
    "text": "Jasień, żarski, Lubuskie",
    "text_simple": "Jasień",
    "text_gray": "żarski",
    "lon": "15.01667",
    "lat": "51.75000",
    "zoom": "12",
    "url": "jasien_46149",
    "districts": [],
    "label": "Jasień"
  },
  {
    "id": "82217",
    "text": "Jenin, gorzowski, Lubuskie",
    "text_simple": "Jenin",
    "text_gray": "gorzowski",
    "lon": "15.10425",
    "lat": "52.69771",
    "zoom": "12",
    "url": "jenin",
    "districts": [],
    "label": "Jenin"
  },
  {
    "id": "82545",
    "text": "Kargowa, zielonogórski, Lubuskie",
    "text_simple": "Kargowa",
    "text_gray": "zielonogórski",
    "lon": "15.87120",
    "lat": "52.07172",
    "zoom": "12",
    "url": "kargowa",
    "districts": [],
    "label": "Kargowa"
  },
  {
    "id": "8529",
    "text": "Konin Żagański, żagański, Lubuskie",
    "text_simple": "Konin Żagański",
    "text_gray": "żagański",
    "lon": "15.20291",
    "lat": "51.54557",
    "zoom": "12",
    "url": "konin-zaganski",
    "districts": [],
    "label": "Konin Żagański"
  },
  {
    "id": "87815",
    "text": "Konotop, gm. Kolsko, nowosolski, Lubuskie",
    "text_simple": "Konotop",
    "text_gray": "nowosolski",
    "lon": "16.05857",
    "lat": "51.88893",
    "zoom": "12",
    "url": "konotop_87815",
    "districts": [],
    "label": "Konotop"
  },
  {
    "id": "135991",
    "text": "Kostrzyn nad Odrą, gorzowski, Lubuskie",
    "text_simple": "Kostrzyn nad Odrą",
    "text_gray": "gorzowski",
    "lon": "14.65188",
    "lat": "52.58761",
    "zoom": "12",
    "url": "kostrzyn-nad-odra",
    "districts": [],
    "label": "Kostrzyn nad Odrą"
  },
  {
    "id": "117821",
    "text": "Kożuchów, nowosolski, Lubuskie",
    "text_simple": "Kożuchów",
    "text_gray": "nowosolski",
    "lon": "15.59733",
    "lat": "51.74403",
    "zoom": "12",
    "url": "kozuchow_117821",
    "districts": [],
    "label": "Kożuchów"
  },
  {
    "id": "30485",
    "text": "Krosno Odrzańskie, krośnieński, Lubuskie",
    "text_simple": "Krosno Odrzańskie",
    "text_gray": "krośnieński",
    "lon": "15.09726",
    "lat": "52.05004",
    "zoom": "12",
    "url": "krosno-odrzanskie",
    "districts": [],
    "label": "Krosno Odrzańskie"
  },
  {
    "id": "88797",
    "text": "Krzeszyce, sulęciński, Lubuskie",
    "text_simple": "Krzeszyce",
    "text_gray": "sulęciński",
    "lon": "15.00978",
    "lat": "52.58315",
    "zoom": "12",
    "url": "krzeszyce_88797",
    "districts": [],
    "label": "Krzeszyce"
  },
  {
    "id": "84971",
    "text": "Kunowice, słubicki, Lubuskie",
    "text_simple": "Kunowice",
    "text_gray": "słubicki",
    "lon": "14.63490",
    "lat": "52.35049",
    "zoom": "12",
    "url": "kunowice",
    "districts": [],
    "label": "Kunowice"
  },
  {
    "id": "87497",
    "text": "Kłodawa, gorzowski, Lubuskie",
    "text_simple": "Kłodawa",
    "text_gray": "gorzowski",
    "lon": "15.21497",
    "lat": "52.78592",
    "zoom": "12",
    "url": "klodawa_87497",
    "districts": [],
    "label": "Kłodawa"
  },
  {
    "id": "31015",
    "text": "Lipinki Łużyckie, żarski, Lubuskie",
    "text_simple": "Lipinki Łużyckie",
    "text_gray": "żarski",
    "lon": "15.00591",
    "lat": "51.64062",
    "zoom": "12",
    "url": "lipinki-luzyckie",
    "districts": [],
    "label": "Lipinki Łużyckie"
  },
  {
    "id": "49079",
    "text": "Lubiszyn, gorzowski, Lubuskie",
    "text_simple": "Lubiszyn",
    "text_gray": "gorzowski",
    "lon": "14.95051",
    "lat": "52.78202",
    "zoom": "12",
    "url": "lubiszyn",
    "districts": [],
    "label": "Lubiszyn"
  },
  {
    "id": "100767",
    "text": "Lubniewice, sulęciński, Lubuskie",
    "text_simple": "Lubniewice",
    "text_gray": "sulęciński",
    "lon": "15.25179",
    "lat": "52.51478",
    "zoom": "12",
    "url": "lubniewice",
    "districts": [],
    "label": "Lubniewice"
  },
  {
    "id": "119193",
    "text": "Lubrza, świebodziński, Lubuskie",
    "text_simple": "Lubrza",
    "text_gray": "świebodziński",
    "lon": "15.44429",
    "lat": "52.30447",
    "zoom": "12",
    "url": "lubrza",
    "districts": [],
    "label": "Lubrza"
  },
  {
    "id": "137557",
    "text": "Lubsko, żarski, Lubuskie",
    "text_simple": "Lubsko",
    "text_gray": "żarski",
    "lon": "14.97317",
    "lat": "51.78453",
    "zoom": "12",
    "url": "lubsko",
    "districts": [],
    "label": "Lubsko"
  },
  {
    "id": "32245",
    "text": "Marzenin, strzelecko-drezdenecki, Lubuskie",
    "text_simple": "Marzenin",
    "text_gray": "strzelecko-drezdenecki",
    "lon": "15.88401",
    "lat": "52.80270",
    "zoom": "12",
    "url": "marzenin",
    "districts": [],
    "label": "Marzenin"
  },
  {
    "id": "90769",
    "text": "Maszewo, gorzowski, Lubuskie",
    "text_simple": "Maszewo",
    "text_gray": "gorzowski",
    "lon": "15.31137",
    "lat": "52.66277",
    "zoom": "12",
    "url": "maszewo_90769",
    "districts": [],
    "label": "Maszewo"
  },
  {
    "id": "101773",
    "text": "Małomice, żagański, Lubuskie",
    "text_simple": "Małomice",
    "text_gray": "żagański",
    "lon": "15.44712",
    "lat": "51.55430",
    "zoom": "12",
    "url": "malomice",
    "districts": [],
    "label": "Małomice"
  },
  {
    "id": "50705",
    "text": "Mirocin Górny, nowosolski, Lubuskie",
    "text_simple": "Mirocin Górny",
    "text_gray": "nowosolski",
    "lon": "15.51692",
    "lat": "51.75164",
    "zoom": "12",
    "url": "mirocin-gorny",
    "districts": [],
    "label": "Mirocin Górny"
  },