[
  {
    "id": "21325",
    "text": "Bielany Wrocławskie, gm. Kobierzyce, wrocławski, Dolnośląskie",
    "text_simple": "Bielany Wrocławskie",
    "text_gray": "wrocławski",
    "lat": 51.03923,
    "zoom": "12",
    "url": "bielany-wroclawskie",
    "districts": [],
    "label": "Bielany Wrocławskie",
    "lng": 16.97184
  },
  {
    "id": "3197",
    "text": "Bielawa, dzierżoniowski, Dolnośląskie",
    "text_simple": "Bielawa",
    "text_gray": "dzierżoniowski",
    "lat": 50.64583,
    "zoom": "12",
    "url": "bielawa",
    "districts": [],
    "label": "Bielawa",
    "lng": 16.63944
  },
  {
    "id": "24357",
    "text": "Bierutów, oleśnicki, Dolnośląskie",
    "text_simple": "Bierutów",
    "text_gray": "oleśnicki",
    "lat": 51.12414,
    "zoom": "12",
    "url": "bierutow",
    "districts": [],
    "label": "Bierutów",
    "lng": 17.54827
  },
  {
    "id": "545",
    "city_id": "24495",
    "text": "Bogatynia, Centrum",
    "text_district": "Centrum",
    "text_gray": "",
    "lat": 50.90693,
    "zoom": 13,
    "label": "Bogatynia, Centrum",
    "lng": 14.95679
  },
  {
    "id": "547",
    "city_id": "24495",
    "text": "Bogatynia, Markocice",
    "text_district": "Markocice",
    "text_gray": "",
    "lat": 50.90693,
    "zoom": 13,
    "label": "Bogatynia, Markocice",
    "lng": 14.95679
  },
  {
    "id": "413",
    "city_id": "24495",
    "text": "Bogatynia, Zatonie",
    "text_district": "Zatonie",
    "text_gray": "",
    "lat": 50.91416,
    "zoom": 13,
    "label": "Bogatynia, Zatonie",
    "lng": 14.95655
  },
  {
    "id": "549",
    "city_id": "24495",
    "text": "Bogatynia, Zatonie-Kolonia",
    "text_district": "Zatonie-Kolonia",
    "text_gray": "",
    "lat": 50.90693,
    "zoom": 13,
    "label": "Bogatynia, Zatonie-Kolonia",
    "lng": 14.95679
  },
  {
    "id": "42471",
    "text": "Boguszów-Gorce, wałbrzyski, Dolnośląskie",
    "text_simple": "Boguszów-Gorce",
    "text_gray": "wałbrzyski",
    "lat": 50.78269,
    "zoom": "12",
    "url": "boguszow-gorce",
    "districts": [],
    "label": "Boguszów-Gorce",
    "lng": 16.16241
  },
  {
    "id": "24545",
    "text": "Bolesławiec, bolesławiecki, Dolnośląskie",
    "text_simple": "Bolesławiec",
    "text_gray": "bolesławiecki",
    "lat": 51.26247,
    "zoom": "12",
    "url": "boleslawiec",
    "districts": [],
    "label": "Bolesławiec",
    "lng": 15.56956
  },
  {
    "id": "130753",
    "text": "Bolków, jaworski, Dolnośląskie",
    "text_simple": "Bolków",
    "text_gray": "jaworski",
    "lat": 50.92335,
    "zoom": "12",
    "url": "bolkow_130753",
    "districts": [],
    "label": "Bolków",
    "lng": 16.10417
  },
  {
    "id": "24811",
    "text": "Brzeg Dolny, wołowski, Dolnośląskie",
    "text_simple": "Brzeg Dolny",
    "text_gray": "wołowski",
    "lat": 51.26865,
    "zoom": "12",
    "url": "brzeg-dolny",
    "districts": [],
    "label": "Brzeg Dolny",
    "lng": 16.72659
  },
  {
    "id": "25263",
    "text": "Bystrzyca Kłodzka, kłodzki, Dolnośląskie",
    "text_simple": "Bystrzyca Kłodzka",
    "text_gray": "kłodzki",
    "lat": 50.29572,
    "zoom": "12",
    "url": "bystrzyca-klodzka",
    "districts": [],
    "label": "Bystrzyca Kłodzka",
    "lng": 16.65185
  },
  {
    "id": "112893",
    "text": "Chocianów, polkowicki, Dolnośląskie",
    "text_simple": "Chocianów",
    "text_gray": "polkowicki",
    "lat": 51.41816,
    "zoom": "12",
    "url": "chocianow",
    "districts": [],
    "label": "Chocianów",
    "lng": 15.90689
  },
  {
    "id": "131601",
    "text": "Chojnów, legnicki, Dolnośląskie",
    "text_simple": "Chojnów",
    "text_gray": "legnicki",
    "lat": 51.27107,
    "zoom": "12",
    "url": "chojnow",
    "districts": [],
    "label": "Chojnów",
    "lng": 15.93766
  },
  {
    "id": "113863",
    "text": "Dobroszyce, oleśnicki, Dolnośląskie",
    "text_simple": "Dobroszyce",
    "text_gray": "oleśnicki",
    "lat": 51.26438,
    "zoom": "12",
    "url": "dobroszyce",
    "districts": [],
    "label": "Dobroszyce",
    "lng": 17.3428
  },
  {
    "id": "5161",
    "text": "Dobrzykowice, wrocławski, Dolnośląskie",
    "text_simple": "Dobrzykowice",
    "text_gray": "wrocławski",
    "lat": 51.09331,
    "zoom": "12",
    "url": "dobrzykowice",
    "districts": [],
    "label": "Dobrzykowice",
    "lng": 17.19476
  },
  {
    "id": "113915",
    "text": "Domaszczyn, wrocławski, Dolnośląskie",
    "text_simple": "Domaszczyn",
    "text_gray": "wrocławski",
    "lat": 51.18746,
    "zoom": "12",
    "url": "domaszczyn",
    "districts": [],
    "label": "Domaszczyn",
    "lng": 17.16697
  },
  {
    "id": "114055",
    "text": "Duszniki-Zdrój, kłodzki, Dolnośląskie",
    "text_simple": "Duszniki-Zdrój",
    "text_gray": "kłodzki",
    "lat": 50.40317,
    "zoom": "12",
    "url": "duszniki-zdroj",
    "districts": [],
    "label": "Duszniki-Zdrój",
    "lng": 16.39304
  },
  {
    "id": "26541",
    "text": "Dzierżoniów, dzierżoniowski, Dolnośląskie",
    "text_simple": "Dzierżoniów",
    "text_gray": "dzierżoniowski",
    "lat": 50.72623,
    "zoom": "12",
    "url": "dzierzoniow",
    "districts": [],
    "label": "Dzierżoniów",
    "lng": 16.65407
  },
  {
    "id": "44167",
    "text": "Długołęka, wrocławski, Dolnośląskie",
    "text_simple": "Długołęka",
    "text_gray": "wrocławski",
    "lat": 51.17672,
    "zoom": "12",
    "url": "dlugoleka_44167",
    "districts": [],
    "label": "Długołęka",
    "lng": 17.19325
  },
  {
    "id": "44759",
    "text": "Gaworzyce, polkowicki, Dolnośląskie",
    "text_simple": "Gaworzyce",
    "text_gray": "polkowicki",
    "lat": 51.62724,
    "zoom": "12",
    "url": "gaworzyce",
    "districts": [],
    "label": "Gaworzyce",
    "lng": 15.88289
  },
  {
    "id": "133971",
    "text": "Gryfów Śląski, lwówecki, Dolnośląskie",
    "text_simple": "Gryfów Śląski",
    "text_gray": "lwówecki",
    "lat": 51.03206,
    "zoom": "12",
    "url": "gryfow-slaski",
    "districts": [],
    "label": "Gryfów Śląski",
    "lng": 15.41858
  },
  {
    "id": "85541",
    "text": "Góra, górowski, Dolnośląskie",
    "text_simple": "Góra",
    "text_gray": "górowski",
    "lat": 51.66739,
    "zoom": "12",
    "url": "gora",
    "districts": [],
    "label": "Góra",
    "lng": 16.54273
  },
  {
    "id": "27191",
    "text": "Głogów, głogowski, Dolnośląskie",
    "text_simple": "Głogów",
    "text_gray": "głogowski",
    "lat": 51.66277,
    "zoom": "12",
    "url": "glogow",
    "districts": [],
    "label": "Głogów",
    "lng": 16.08749
  },
  {
    "id": "81091",
    "text": "Głuszyca, wałbrzyski, Dolnośląskie",
    "text_simple": "Głuszyca",
    "text_gray": "wałbrzyski",
    "lat": 50.68618,
    "zoom": "12",
    "url": "gluszyca",
    "districts": [],
    "label": "Głuszyca",
    "lng": 16.37167
  },
  {
    "id": "64413",
    "text": "Jawor, jaworski, Dolnośląskie",
    "text_simple": "Jawor",
    "text_gray": "jaworski",
    "lat": 51.05265,
    "zoom": "12",
    "url": "jawor",
    "districts": [],
    "label": "Jawor",
    "lng": 16.19509
  },
  {
    "id": "46225",
    "text": "Jaworzyna Śląska, świdnicki, Dolnośląskie",
    "text_simple": "Jaworzyna Śląska",
    "text_gray": "świdnicki",
    "lat": 50.91105,
    "zoom": "12",
    "url": "jaworzyna-slaska",
    "districts": [],
    "label": "Jaworzyna Śląska",
    "lng": 16.43176
  },
  {
    "id": "7249",
    "text": "Jedlina-Zdrój, wałbrzyski, Dolnośląskie",
    "text_simple": "Jedlina-Zdrój",
    "text_gray": "wałbrzyski",
    "lat": 50.71969,
    "zoom": "12",
    "url": "jedlina-zdroj",
    "districts": [],
    "label": "Jedlina-Zdrój",
    "lng": 16.34809
  },
  {
    "id": "64467",
    "text": "Jelcz-Laskowice, oławski, Dolnośląskie",
    "text_simple": "Jelcz-Laskowice",
    "text_gray": "oławski",
    "lat": 51.03863,
    "zoom": "12",
    "url": "jelcz-laskowice",
    "districts": [],
    "label": "Jelcz-Laskowice",
    "lng": 17.3515
  },
  {
    "id": "561",
    "city_id": "7257",
    "text": "Jelenia Góra, Centrum",
    "text_district": "Centrum",
    "text_gray": "",
    "lat": 50.85134,
    "zoom": 13,
    "label": "Jelenia Góra, Centrum",
    "lng": 15.73459
  },
  {
    "id": "199",
    "city_id": "7257",
    "text": "Jelenia Góra, Cieplice Śląskie-Zdrój",
    "text_district": "Cieplice Śląskie-Zdrój",
    "text_gray": "",
    "lat": 50.86489,
    "zoom": 13,
    "label": "Jelenia Góra, Cieplice Śląskie-Zdrój",
    "lng": 15.62921
  },
  {
    "id": "557",
    "city_id": "7257",
    "text": "Jelenia Góra, Czarne",
    "text_district": "Czarne",
    "text_gray": "",
    "lat": 50.85133,
    "zoom": 13,
    "label": "Jelenia Góra, Czarne",
    "lng": 15.73459
  },
  {
    "id": "507",
    "city_id": "7257",
    "text": "Jelenia Góra, Goduszyn",
    "text_district": "Goduszyn",
    "text_gray": "",
    "lat": 50.85133,
    "zoom": 13,
    "label": "Jelenia Góra, Goduszyn",
    "lng": 15.73459
  },
  {
    "id": "201",
    "city_id": "7257",
    "text": "Jelenia Góra, Grabary",
    "text_district": "Grabary",
    "text_gray": "",
    "lat": 50.85133,
    "zoom": 13,
    "label": "Jelenia Góra, Grabary",
    "lng": 15.73459
  },
  {
    "id": "585",
    "city_id": "7257",
    "text": "Jelenia Góra, Jagniątków",
    "text_district": "Jagniątków",
    "text_gray": "",
    "lat": 50.84163,
    "zoom": 13,
    "label": "Jelenia Góra, Jagniątków",
    "lng": 15.64142
  },
  {
    "id": "675",
    "city_id": "7257",
    "text": "Jelenia Góra, Maciejowa",
    "text_district": "Maciejowa",
    "text_gray": "",
    "lat": 50.85133,
    "zoom": 13,
    "label": "Jelenia Góra, Maciejowa",
    "lng": 15.73459
  },
  {
    "id": "559",
    "city_id": "7257",
    "text": "Jelenia Góra, Paulinum",
    "text_district": "Paulinum",
    "text_gray": "",
    "lat": 50.85134,
    "zoom": 13,
    "label": "Jelenia Góra, Paulinum",
    "lng": 15.73459
  },
  {
    "id": "603",
    "city_id": "7257",
    "text": "Jelenia Góra, Sobieszów",
    "text_district": "Sobieszów",
    "text_gray": "",
    "lat": 50.84163,
    "zoom": 13,
    "label": "Jelenia Góra, Sobieszów",
    "lng": 15.64142
  },
  {
    "id": "677",
    "city_id": "7257",
    "text": "Jelenia Góra, Strupice",
    "text_district": "Strupice",
    "text_gray": "",
    "lat": 50.85133,
    "zoom": 13,
    "label": "Jelenia Góra, Strupice",
    "lng": 15.73459
  },
  {
    "id": "203",
    "city_id": "7257",
    "text": "Jelenia Góra, Zabobrze",
    "text_district": "Zabobrze",
    "text_gray": "",
    "lat": 50.86173,
    "zoom": 13,
    "label": "Jelenia Góra, Zabobrze",
    "lng": 15.72032
  },
  {
    "id": "116001",
    "text": "Jeżów Sudecki, jeleniogórski, Dolnośląskie",
    "text_simple": "Jeżów Sudecki",
    "text_gray": "jeleniogórski",
    "lat": 50.9303,
    "zoom": "12",
    "url": "jezow-sudecki",
    "districts": [],
    "label": "Jeżów Sudecki",
    "lng": 15.74471
  },
  {
    "id": "28625",
    "text": "Kamieniec Wrocławski, wrocławski, Dolnośląskie",
    "text_simple": "Kamieniec Wrocławski",
    "text_gray": "wrocławski",
    "lat": 51.07443,
    "zoom": "12",
    "url": "kamieniec-wroclawski",
    "districts": [],
    "label": "Kamieniec Wrocławski",
    "lng": 17.17503
  },
  {
    "id": "7543",
    "text": "Kamieniec Ząbkowicki, ząbkowicki, Dolnośląskie",
    "text_simple": "Kamieniec Ząbkowicki",
    "text_gray": "ząbkowicki",
    "lat": 50.52397,
    "zoom": "12",
    "url": "kamieniec-zabkowicki",
    "districts": [],
    "label": "Kamieniec Ząbkowicki",
    "lng": 16.87799
  },
  {
    "id": "64759",
    "text": "Kamienna Góra, kamiennogórski, Dolnośląskie",
    "text_simple": "Kamienna Góra",
    "text_gray": "kamiennogórski",
    "lat": 50.78363,
    "zoom": "12",
    "url": "kamienna-gora",
    "districts": [],
    "label": "Kamienna Góra",
    "lng": 16.0275
  },
  {
    "id": "28743",
    "text": "Karpacz, jeleniogórski, Dolnośląskie",
    "text_simple": "Karpacz",
    "text_gray": "jeleniogórski",
    "lat": 50.79124,
    "zoom": "12",
    "url": "karpacz",
    "districts": [],
    "label": "Karpacz",
    "lng": 15.78096
  },
  {
    "id": "135461",
    "text": "Kiełczów, wrocławski, Dolnośląskie",
    "text_simple": "Kiełczów",
    "text_gray": "wrocławski",
    "lat": 51.13963,
    "zoom": "12",
    "url": "kielczow",
    "districts": [],
    "label": "Kiełczów",
    "lng": 17.18042
  },
  {
    "id": "65551",
    "text": "Kobierzyce, wrocławski, Dolnośląskie",
    "text_simple": "Kobierzyce",
    "text_gray": "wrocławski",
    "lat": 50.97148,
    "zoom": "12",
    "url": "kobierzyce",
    "districts": [],
    "label": "Kobierzyce",
    "lng": 16.92863
  },
  {
    "id": "47913",
    "text": "Kowary, jeleniogórski, Dolnośląskie",
    "text_simple": "Kowary",
    "text_gray": "jeleniogórski",
    "lat": 50.79615,
    "zoom": "12",
    "url": "kowary",
    "districts": [],
    "label": "Kowary",
    "lng": 15.83259
  },
  {
    "id": "66815",
    "text": "Kudowa-Zdrój, kłodzki, Dolnośląskie",
    "text_simple": "Kudowa-Zdrój",
    "text_gray": "kłodzki",
    "lat": 50.43492,
    "zoom": "12",
    "url": "kudowa-zdroj",
    "districts": [],
    "label": "Kudowa-Zdrój",
    "lng": 16.23916
  },
  {
    "id": "116723",
    "text": "Kąty Wrocławskie, wrocławski, Dolnośląskie",
    "text_simple": "Kąty Wrocławskie",
    "text_gray": "wrocławski",
    "lat": 51.03076,
    "zoom": "12",
    "url": "katy-wroclawskie",
    "districts": [],
    "label": "Kąty Wrocławskie",
    "lng": 16.76905
  },
  {
    "id": "47303",
    "text": "Kłodzko, kłodzki, Dolnośląskie",
    "text_simple": "Kłodzko",
    "text_gray": "kłodzki",
    "lat": 50.43437,
    "zoom": "12",
    "url": "klodzko",
    "districts": [],
    "label": "Kłodzko",
    "lng": 16.65733
  },
  {
    "id": "9775",
    "text": "Legnica, Dolnośląskie",
    "text_simple": "Legnica",
    "text_gray": "Dolnośląskie",
    "lat": 51.20701,
    "zoom": "12",
    "url": "legnica",
    "districts": [],
    "label": "Legnica",
    "lng": 16.15532
  },
  {
    "id": "9831",
    "text": "Leśna, lubański, Dolnośląskie",
    "text_simple": "Leśna",
    "text_gray": "lubański",
    "lat": 51.02356,
    "zoom": "12",
    "url": "lesna",
    "districts": [],
    "label": "Leśna",
    "lng": 15.26358
  },
  {
    "id": "89413",
    "text": "Lubawka, kamiennogórski, Dolnośląskie",
    "text_simple": "Lubawka",
    "text_gray": "kamiennogórski",
    "lat": 50.70915,
    "zoom": "12",
    "url": "lubawka",
    "districts": [],
    "label": "Lubawka",
    "lng": 16.00037
  },
  {
    "id": "89409",
    "text": "Lubań, lubański, Dolnośląskie",
    "text_simple": "Lubań",
    "text_gray": "lubański",
    "lat": 51.12389,
    "zoom": "12",
    "url": "luban",
    "districts": [],
    "label": "Lubań",
    "lng": 15.2888
  },
  {
    "id": "10101",
    "text": "Lubin, lubiński, Dolnośląskie",
    "text_simple": "Lubin",
    "text_gray": "lubiński",
    "lat": 51.40026,
    "zoom": "12",
    "url": "lubin",
    "districts": [],
    "label": "Lubin",
    "lng": 16.20152
  },
  {
    "id": "137531",
    "text": "Lubomierz, lwówecki, Dolnośląskie",
    "text_simple": "Lubomierz",
    "text_gray": "lwówecki",
    "lat": 51.01186,
    "zoom": "12",
    "url": "lubomierz_137531",
    "districts": [],
    "label": "Lubomierz",
    "lng": 15.50886
  },
  {
    "id": "31345",
    "text": "Lwówek Śląski, lwówecki, Dolnośląskie",
    "text_simple": "Lwówek Śląski",
    "text_gray": "lwówecki",
    "lat": 51.1153,
    "zoom": "12",
    "url": "lwowek-slaski",
    "districts": [],
    "label": "Lwówek Śląski",
    "lng": 15.58795
  },
  {
    "id": "118649",
    "text": "Lądek-Zdrój, kłodzki, Dolnośląskie",
    "text_simple": "Lądek-Zdrój",
    "text_gray": "kłodzki",
    "lat": 50.34309,
    "zoom": "12",
    "url": "ladek-zdroj",
    "districts": [],
    "label": "Lądek-Zdrój",
    "lng": 16.88544
  },
  {
    "id": "11675",
    "text": "Milicz, milicki, Dolnośląskie",
    "text_simple": "Milicz",
    "text_gray": "milicki",
    "lat": 51.53363,
    "zoom": "12",
    "url": "milicz",
    "districts": [],
    "label": "Milicz",
    "lng": 17.29526
  },
  {
    "id": "50701",
    "text": "Mirków, wrocławski, Dolnośląskie",
    "text_simple": "Mirków",
    "text_gray": "wrocławski",
    "lat": 51.16883,
    "zoom": "12",
    "url": "mirkow",
    "districts": [],
    "label": "Mirków",
    "lng": 17.15861
  },
  {
    "id": "91001",
    "text": "Mirsk, lwówecki, Dolnośląskie",
    "text_simple": "Mirsk",
    "text_gray": "lwówecki",
    "lat": 50.9697,
    "zoom": "12",
    "url": "mirsk",
    "districts": [],
    "label": "Mirsk",
    "lng": 15.38491
  },
  {
    "id": "11591",
    "text": "Międzybórz, oleśnicki, Dolnośląskie",
    "text_simple": "Międzybórz",
    "text_gray": "oleśnicki",
    "lat": 51.3985,
    "zoom": "12",
    "url": "miedzyborz",
    "districts": [],
    "label": "Międzybórz",
    "lng": 17.66683
  },
  {
    "id": "69095",
    "text": "Mysłakowice, jeleniogórski, Dolnośląskie",
    "text_simple": "Mysłakowice",
    "text_gray": "jeleniogórski",
    "lat": 50.83606,
    "zoom": "12",
    "url": "myslakowice_69095",
    "districts": [],
    "label": "Mysłakowice",
    "lng": 15.79054
  },
  {
    "id": "91415",
    "text": "Niemcza, dzierżoniowski, Dolnośląskie",
    "text_simple": "Niemcza",
    "text_gray": "dzierżoniowski",
    "lat": 50.72132,
    "zoom": "12",
    "url": "niemcza",
    "districts": [],
    "label": "Niemcza",
    "lng": 16.83554
  },
  {
    "id": "12231",
    "text": "Nowa Ruda, kłodzki, Dolnośląskie",
    "text_simple": "Nowa Ruda",
    "text_gray": "kłodzki",
    "lat": 50.57929,
    "zoom": "12",
    "url": "nowa-ruda",
    "districts": [],
    "label": "Nowa Ruda",
    "lng": 16.5047
  },
  {
    "id": "102907",
    "text": "Nowogrodziec, bolesławiecki, Dolnośląskie",
    "text_simple": "Nowogrodziec",
    "text_gray": "bolesławiecki",
    "lat": 51.19587,
    "zoom": "12",
    "url": "nowogrodziec",
    "districts": [],
    "label": "Nowogrodziec",
    "lng": 15.39873
  },
  {
    "id": "69611",
    "text": "Oborniki Śląskie, trzebnicki, Dolnośląskie",
    "text_simple": "Oborniki Śląskie",
    "text_gray": "trzebnicki",
    "lat": 51.30076,
    "zoom": "12",
    "url": "oborniki-slaskie",
    "districts": [],
    "label": "Oborniki Śląskie",
    "lng": 16.91428
  },
  {
    "id": "643",
    "city_id": "12623",
    "text": "Oleśnica, Lucień",
    "text_district": "Lucień",
    "text_gray": "",
    "lat": 51.21263,
    "zoom": 13,
    "label": "Oleśnica, Lucień",
    "lng": 17.39596
  },
  {
    "id": "313",
    "city_id": "12623",
    "text": "Oleśnica, Oleśnica",
    "text_district": "Oleśnica",
    "text_gray": "",
    "lat": 51.21263,
    "zoom": 13,
    "label": "Oleśnica, Oleśnica",
    "lng": 17.39596
  },
  {
    "id": "523",
    "city_id": "12623",
    "text": "Oleśnica, Rataje",
    "text_district": "Rataje",
    "text_gray": "",
    "lat": 51.21263,
    "zoom": 13,
    "label": "Oleśnica, Rataje",
    "lng": 17.39596
  },
  {
    "id": "645",
    "city_id": "12623",
    "text": "Oleśnica, Wądoły",
    "text_district": "Wądoły",
    "text_gray": "",
    "lat": 51.21263,
    "zoom": 13,
    "label": "Oleśnica, Wądoły",
    "lng": 17.39596
  },
  {
    "id": "92159",
    "text": "Olszyna, lubański, Dolnośląskie",
    "text_simple": "Olszyna",
    "text_gray": "lubański",
    "lat": 51.06475,
    "zoom": "12",
    "url": "olszyna_92159",
    "districts": [],
    "label": "Olszyna",
    "lng": 15.37864
  },
  {
    "id": "12869",
    "text": "Oława, oławski, Dolnośląskie",
    "text_simple": "Oława",
    "text_gray": "oławski",
    "lat": 50.93848,
    "zoom": "12",
    "url": "olawa",
    "districts": [],
    "label": "Oława",
    "lng": 17.30294
  },
  {
    "id": "52419",
    "text": "Piechowice, jeleniogórski, Dolnośląskie",
    "text_simple": "Piechowice",
    "text_gray": "jeleniogórski",
    "lat": 50.83331,
    "zoom": "12",
    "url": "piechowice_52419",
    "districts": [],
    "label": "Piechowice",
    "lng": 15.58627
  },
  {
    "id": "70627",
    "text": "Pieszyce, dzierżoniowski, Dolnośląskie",
    "text_simple": "Pieszyce",
    "text_gray": "dzierżoniowski",
    "lat": 50.71119,
    "zoom": "12",
    "url": "pieszyce",
    "districts": [],
    "label": "Pieszyce",
    "lng": 16.58306
  },
  {
    "id": "140635",
    "text": "Pieńsk, zgorzelecki, Dolnośląskie",
    "text_simple": "Pieńsk",
    "text_gray": "zgorzelecki",
    "lat": 51.24663,
    "zoom": "12",
    "url": "piensk",
    "districts": [],
    "label": "Pieńsk",
    "lng": 15.04818
  },
  {
    "id": "122481",
    "text": "Piława Górna, dzierżoniowski, Dolnośląskie",
    "text_simple": "Piława Górna",
    "text_gray": "dzierżoniowski",
    "lat": 50.68245,
    "zoom": "12",
    "url": "pilawa-gorna",
    "districts": [],
    "label": "Piława Górna",
    "lng": 16.74736
  },
  {
    "id": "104381",
    "text": "Polanica-Zdrój, kłodzki, Dolnośląskie",
    "text_simple": "Polanica-Zdrój",
    "text_gray": "kłodzki",
    "lat": 50.40346,
    "zoom": "12",
    "url": "polanica-zdroj",
    "districts": [],
    "label": "Polanica-Zdrój",
    "lng": 16.51282
  },
  {
    "id": "141033",
    "text": "Polkowice, polkowicki, Dolnośląskie",
    "text_simple": "Polkowice",
    "text_gray": "polkowicki",
    "lat": 51.50341,
    "zoom": "12",
    "url": "polkowice",
    "districts": [],
    "label": "Polkowice",
    "lng": 16.0703
  },
  {
    "id": "71525",
    "text": "Prochowice, legnicki, Dolnośląskie",
    "text_simple": "Prochowice",
    "text_gray": "legnicki",
    "lat": 51.27269,
    "zoom": "12",
    "url": "prochowice",
    "districts": [],
    "label": "Prochowice",
    "lng": 16.36554
  },
  {
    "id": "104981",
    "text": "Prusice, trzebnicki, Dolnośląskie",
    "text_simple": "Prusice",
    "text_gray": "trzebnicki",
    "lat": 51.37169,
    "zoom": "12",
    "url": "prusice",
    "districts": [],
    "label": "Prusice",
    "lng": 16.96239
  },
  {
    "id": "53487",
    "text": "Przemków, polkowicki, Dolnośląskie",
    "text_simple": "Przemków",
    "text_gray": "polkowicki",
    "lat": 51.5268,
    "zoom": "12",
    "url": "przemkow",
    "districts": [],
    "label": "Przemków",
    "lng": 15.78884
  },
  {
    "id": "35625",
    "text": "Radwanice, polkowicki, Dolnośląskie",
    "text_simple": "Radwanice",
    "text_gray": "polkowicki",
    "lat": 51.56336,
    "zoom": "12",
    "url": "radwanice",
    "districts": [],
    "label": "Radwanice",
    "lng": 15.94651
  },
  {
    "id": "105755",
    "text": "Ruszowice, głogowski, Dolnośląskie",
    "text_simple": "Ruszowice",
    "text_gray": "głogowski",
    "lat": 51.64345,
    "zoom": "12",
    "url": "ruszowice_105755",
    "districts": [],
    "label": "Ruszowice",
    "lng": 16.08257
  },
  {
    "id": "54553",
    "text": "Siechnice, wrocławski, Dolnośląskie",
    "text_simple": "Siechnice",
    "text_gray": "wrocławski",
    "lat": 51.03348,
    "zoom": "12",
    "url": "siechnice",
    "districts": [],
    "label": "Siechnice",
    "lng": 17.14752
  },
  {
    "id": "36783",
    "text": "Smolec, gm. Kąty Wrocławskie, wrocławski, Dolnośląskie",
    "text_simple": "Smolec",
    "text_gray": "wrocławski",
    "lat": 51.07255,
    "zoom": "12",
    "url": "smolec",
    "districts": [],
    "label": "Smolec",
    "lng": 16.88458
  },
  {
    "id": "36827",
    "text": "Sobótka, wrocławski, Dolnośląskie",
    "text_simple": "Sobótka",
    "text_gray": "wrocławski",
    "lat": 50.89879,
    "zoom": "12",
    "url": "sobotka",
    "districts": [],
    "label": "Sobótka",
    "lng": 16.74524
  },
  {
    "id": "125427",
    "text": "Stronie Śląskie, kłodzki, Dolnośląskie",
    "text_simple": "Stronie Śląskie",
    "text_gray": "kłodzki",
    "lat": 50.29867,
    "zoom": "12",
    "url": "stronie-slaskie_125427",
    "districts": [],
    "label": "Stronie Śląskie",
    "lng": 16.875
  },
  {
    "id": "143707",
    "text": "Strzegom, świdnicki, Dolnośląskie",
    "text_simple": "Strzegom",
    "text_gray": "świdnicki",
    "lat": 50.95928,
    "zoom": "12",
    "url": "strzegom",
    "districts": [],
    "label": "Strzegom",
    "lng": 16.34863
  },
  {
    "id": "37423",
    "text": "Strzelin, strzeliński, Dolnośląskie",
    "text_simple": "Strzelin",
    "text_gray": "strzeliński",
    "lat": 50.78333,
    "zoom": "12",
    "url": "strzelin",
    "districts": [],
    "label": "Strzelin",
    "lng": 17.06667
  },
  {
    "id": "55713",
    "text": "Syców, oleśnicki, Dolnośląskie",
    "text_simple": "Syców",
    "text_gray": "oleśnicki",
    "lat": 51.30457,
    "zoom": "12",
    "url": "sycow",
    "districts": [],
    "label": "Syców",
    "lng": 17.69555
  },
  {
    "id": "55767",
    "text": "Szczawno-Zdrój, wałbrzyski, Dolnośląskie",
    "text_simple": "Szczawno-Zdrój",
    "text_gray": "wałbrzyski",
    "lat": 50.79975,
    "zoom": "12",
    "url": "szczawno-zdroj",
    "districts": [],
    "label": "Szczawno-Zdrój",
    "lng": 16.25397
  },
  {
    "id": "107575",
    "text": "Szczytna, kłodzki, Dolnośląskie",
    "text_simple": "Szczytna",
    "text_gray": "kłodzki",
    "lat": 50.41148,
    "zoom": "12",
    "url": "szczytna_107575",
    "districts": [],
    "label": "Szczytna",
    "lng": 16.4478
  },
  {
    "id": "96251",
    "text": "Szklarska Poręba, jeleniogórski, Dolnośląskie",
    "text_simple": "Szklarska Poręba",
    "text_gray": "jeleniogórski",
    "lat": 50.82873,
    "zoom": "12",
    "url": "szklarska-poreba",
    "districts": [],
    "label": "Szklarska Poręba",
    "lng": 15.52013
  },
  {
    "id": "96783",
    "text": "Trzebnica, trzebnicki, Dolnośląskie",
    "text_simple": "Trzebnica",
    "text_gray": "trzebnicki",
    "lat": 51.32318,
    "zoom": "12",
    "url": "trzebnica",
    "districts": [],
    "label": "Trzebnica",
    "lng": 17.08393
  },
  {
    "id": "144953",
    "text": "Twardogóra, oleśnicki, Dolnośląskie",
    "text_simple": "Twardogóra",
    "text_gray": "oleśnicki",
    "lat": 51.36326,
    "zoom": "12",
    "url": "twardogora",
    "districts": [],
    "label": "Twardogóra",
    "lng": 17.47054
  },
  {
    "id": "17829",
    "text": "Wałbrzych, Dolnośląskie",
    "text_simple": "Wałbrzych",
    "text_gray": "Dolnośląskie",
    "lat": 50.784,
    "zoom": "12",
    "url": "walbrzych",
    "districts": [],
    "label": "Wałbrzych",
    "lng": 16.2843
  },
  {
    "id": "128051",
    "text": "Wiązów, strzeliński, Dolnośląskie",
    "text_simple": "Wiązów",
    "text_gray": "strzeliński",
    "lat": 50.81275,
    "zoom": "12",
    "url": "wiazow",
    "districts": [],
    "label": "Wiązów",
    "lng": 17.20353
  },
  {
    "id": "58729",
    "text": "Wołów, wołowski, Dolnośląskie",
    "text_simple": "Wołów",
    "text_gray": "wołowski",
    "lat": 51.33615,
    "zoom": "12",
    "url": "wolow",
    "districts": [],
    "label": "Wołów",
    "lng": 16.64496
  },
  {
    "id": "393",
    "city_id": "19701",
    "text": "Wrocław, Fabryczna",
    "text_district": "Fabryczna",
    "text_gray": "",
    "lat": 51.12232,
    "zoom": 13,
    "label": "Wrocław, Fabryczna",
    "lng": 16.93842
  },
  {
    "id": "391",
    "city_id": "19701",
    "text": "Wrocław, Krzyki",
    "text_district": "Krzyki",
    "text_gray": "",
    "lat": 51.07576,
    "zoom": 13,
    "label": "Wrocław, Krzyki",
    "lng": 17.03466
  },
  {
    "id": "389",
    "city_id": "19701",
    "text": "Wrocław, Psie Pole",
    "text_district": "Psie Pole",
    "text_gray": "",
    "lat": 51.14561,
    "zoom": 13,
    "label": "Wrocław, Psie Pole",
    "lng": 17.07536
  },
  {
    "id": "387",
    "city_id": "19701",
    "text": "Wrocław, Śródmieście",
    "text_district": "Śródmieście",
    "text_gray": "",
    "lat": 51.11464,
    "zoom": 13,
    "label": "Wrocław, Śródmieście",
    "lng": 17.06436
  },
  {
    "id": "385",
    "city_id": "19701",
    "text": "Wrocław, Stare Miasto",
    "text_district": "Stare Miasto",
    "text_gray": "",
    "lat": 51.10934,
    "zoom": 13,
    "label": "Wrocław, Stare Miasto",
    "lng": 17.02526
  },
  {
    "id": "20231",
    "text": "Wysoka, wrocławski, Dolnośląskie",
    "text_simple": "Wysoka",
    "text_gray": "wrocławski",
    "lat": 51.04226,
    "zoom": "12",
    "url": "wysoka",
    "districts": [],
    "label": "Wysoka",
    "lng": 17.01475
  },
  {
    "id": "76135",
    "text": "Wąsosz, górowski, Dolnośląskie",
    "text_simple": "Wąsosz",
    "text_gray": "górowski",
    "lat": 51.56441,
    "zoom": "12",
    "url": "wasosz_76135",
    "districts": [],
    "label": "Wąsosz",
    "lng": 16.69552
  },
  {
    "id": "129619",
    "text": "Zgorzelec, zgorzelecki, Dolnośląskie",
    "text_simple": "Zgorzelec",
    "text_gray": "zgorzelecki",
    "lat": 51.14865,
    "zoom": "12",
    "url": "zgorzelec",
    "districts": [],
    "label": "Zgorzelec",
    "lng": 15.01585
  },
  {
    "id": "20915",
    "text": "Ziębice, ząbkowicki, Dolnośląskie",
    "text_simple": "Ziębice",
    "text_gray": "ząbkowicki",
    "lat": 50.60102,
    "zoom": "12",
    "url": "ziebice",
    "districts": [],
    "label": "Ziębice",
    "lng": 17.0441
  },
  {
    "id": "59751",
    "text": "Ząbkowice Śląskie, ząbkowicki, Dolnośląskie",
    "text_simple": "Ząbkowice Śląskie",
    "text_gray": "ząbkowicki",
    "lat": 50.59629,
    "zoom": "12",
    "url": "zabkowice-slaskie",
    "districts": [],
    "label": "Ząbkowice Śląskie",
    "lng": 16.81108
  },
  {
    "id": "20949",
    "text": "Złotoryja, złotoryjski, Dolnośląskie",
    "text_simple": "Złotoryja",
    "text_gray": "złotoryjski",
    "lat": 51.12343,
    "zoom": "12",
    "url": "zlotoryja",
    "districts": [],
    "label": "Złotoryja",
    "lng": 15.91757
  },
  {
    "id": "137641",
    "text": "Łagiewniki, dzierżoniowski, Dolnośląskie",
    "text_simple": "Łagiewniki",
    "text_gray": "dzierżoniowski",
    "lat": 50.79016,
    "zoom": "12",
    "url": "lagiewniki_137641",
    "districts": [],
    "label": "Łagiewniki",
    "lng": 16.84623
  },
  {
    "id": "17177",
    "text": "Ścinawa, lubiński, Dolnośląskie",
    "text_simple": "Ścinawa",
    "text_gray": "lubiński",
    "lat": 51.40983,
    "zoom": "12",
    "url": "scinawa",
    "districts": [],
    "label": "Ścinawa",
    "lng": 16.43897
  },
  {
    "id": "17225",
    "text": "Środa Śląska, średzki, Dolnośląskie",
    "text_simple": "Środa Śląska",
    "text_gray": "średzki",
    "lat": 51.16309,
    "zoom": "12",
    "url": "sroda-slaska",
    "districts": [],
    "label": "Środa Śląska",
    "lng": 16.5952
  },
  {
    "id": "38153",
    "text": "Świdnica, świdnicki, Dolnośląskie",
    "text_simple": "Świdnica",
    "text_gray": "świdnicki",
    "lat": 50.84051,
    "zoom": "12",
    "url": "swidnica",
    "districts": [],
    "label": "Świdnica",
    "lng": 16.4886
  },
  {
    "id": "38163",
    "text": "Świebodzice, świdnicki, Dolnośląskie",
    "text_simple": "Świebodzice",
    "text_gray": "świdnicki",
    "lat": 50.85803,
    "zoom": "12",
    "url": "swiebodzice",
    "districts": [],
    "label": "Świebodzice",
    "lng": 16.32151
  },
  {
    "id": "107811",
    "text": "Świeradów-Zdrój, lubański, Dolnośląskie",
    "text_simple": "Świeradów-Zdrój",
    "text_gray": "lubański",
    "lat": 50.9121,
    "zoom": "12",
    "url": "swieradow-zdroj",
    "districts": [],
    "label": "Świeradów-Zdrój",
    "lng": 15.342
  },
  {
    "id": "111565",
    "text": "Żarów, świdnicki, Dolnośląskie",
    "text_simple": "Żarów",
    "text_gray": "świdnicki",
    "lat": 50.93947,
    "zoom": "12",
    "url": "zarow_111565",
    "districts": [],
    "label": "Żarów",
    "lng": 16.49665
  },
  {
    "id": "148339",
    "text": "Żmigród, trzebnicki, Dolnośląskie",
    "text_simple": "Żmigród",
    "text_gray": "trzebnicki",
    "lat": 51.4676,
    "zoom": "12",
    "url": "zmigrod",
    "districts": [],
    "label": "Żmigród",
    "lng": 16.90779
  },
  {
    "id": "627",
    "text": "Aleksandrów Kujawski, aleksandrowski, Kujawsko-pomorskie",
    "text_simple": "Aleksandrów Kujawski",
    "text_gray": "aleksandrowski",
    "lat": 52.86653,
    "zoom": "12",
    "url": "aleksandrow-kujawski",
    "districts": [],
    "label": "Aleksandrów Kujawski",
    "lng": 18.69801
  },
  {
    "id": "561",
    "text": "Barcin, żniński, Kujawsko-pomorskie",
    "text_simple": "Barcin",
    "text_gray": "żniński",
    "lat": 52.85584,
    "zoom": "12",
    "url": "barcin",
    "districts": [],
    "label": "Barcin",
    "lng": 17.93792
  },
  {
    "id": "41973",
    "text": "Białe Błota, bydgoski, Kujawsko-pomorskie",
    "text_simple": "Białe Błota",
    "text_gray": "bydgoski",
    "lat": 53.09754,
    "zoom": "12",
    "url": "biale-blota_41973",
    "districts": [],
    "label": "Białe Błota",
    "lng": 17.91819
  },
  {
    "id": "21803",
    "text": "Brodnica, brodnicki, Kujawsko-pomorskie",
    "text_simple": "Brodnica",
    "text_gray": "brodnicki",
    "lat": 53.25021,
    "zoom": "12",
    "url": "brodnica",
    "districts": [],
    "label": "Brodnica",
    "lng": 19.40285
  },
  {
    "id": "112345",
    "text": "Brześć Kujawski, włocławski, Kujawsko-pomorskie",
    "text_simple": "Brześć Kujawski",
    "text_gray": "włocławski",
    "lat": 52.60443,
    "zoom": "12",
    "url": "brzesc-kujawski",
    "districts": [],
    "label": "Brześć Kujawski",
    "lng": 18.90209
  },
  {
    "id": "24893",
    "text": "Brzoza, bydgoski, Kujawsko-pomorskie",
    "text_simple": "Brzoza",
    "text_gray": "bydgoski",
    "lat": 53.03058,
    "zoom": "12",
    "url": "brzoza_24893",
    "districts": [],
    "label": "Brzoza",
    "lng": 18.01435
  },
  {
    "id": "112425",
    "text": "Brzozówka, toruński, Kujawsko-pomorskie",
    "text_simple": "Brzozówka",
    "text_gray": "toruński",
    "lat": 53.02156,
    "zoom": "12",
    "url": "brzozowka_112425",
    "districts": [],
    "label": "Brzozówka",
    "lng": 18.80781
  },
  {
    "id": "4019",
    "text": "Bydgoszcz, Kujawsko-pomorskie",
    "text_simple": "Bydgoszcz",
    "text_gray": "Kujawsko-pomorskie",
    "lat": 53.1342,
    "zoom": "13",
    "url": "bydgoszcz",
    "districts": [],
    "label": "Bydgoszcz",
    "lng": 17.99035
  },
  {
    "id": "22441",
    "text": "Cekcyn, tucholski, Kujawsko-pomorskie",
    "text_simple": "Cekcyn",
    "text_gray": "tucholski",
    "lat": 53.57311,
    "zoom": "12",
    "url": "cekcyn",
    "districts": [],
    "label": "Cekcyn",
    "lng": 18.01283
  },
  {
    "id": "22501",
    "text": "Chełmno, chełmiński, Kujawsko-pomorskie",
    "text_simple": "Chełmno",
    "text_gray": "chełmiński",
    "lat": 53.35,
    "zoom": "12",
    "url": "chelmno",
    "districts": [],
    "label": "Chełmno",
    "lng": 18.43333
  },
  {
    "id": "61523",
    "text": "Chełmża, toruński, Kujawsko-pomorskie",
    "text_simple": "Chełmża",
    "text_gray": "toruński",
    "lat": 53.18478,
    "zoom": "12",
    "url": "chelmza",
    "districts": [],
    "label": "Chełmża",
    "lng": 18.606
  },
  {
    "id": "61553",
    "text": "Choceń, włocławski, Kujawsko-pomorskie",
    "text_simple": "Choceń",
    "text_gray": "włocławski",
    "lat": 52.48549,
    "zoom": "12",
    "url": "chocen",
    "districts": [],
    "label": "Choceń",
    "lng": 19.0174
  },
  {
    "id": "131575",
    "text": "Chodecz, włocławski, Kujawsko-pomorskie",
    "text_simple": "Chodecz",
    "text_gray": "włocławski",
    "lat": 52.40483,
    "zoom": "12",
    "url": "chodecz",
    "districts": [],
    "label": "Chodecz",
    "lng": 19.02872
  },
  {
    "id": "4499",
    "text": "Ciechocinek, aleksandrowski, Kujawsko-pomorskie",
    "text_simple": "Ciechocinek",
    "text_gray": "aleksandrowski",
    "lat": 52.86943,
    "zoom": "12",
    "url": "ciechocinek",
    "districts": [],
    "label": "Ciechocinek",
    "lng": 18.79115
  },
  {
    "id": "4739",
    "text": "Czernikowo, toruński, Kujawsko-pomorskie",
    "text_simple": "Czernikowo",
    "text_gray": "toruński",
    "lat": 52.94578,
    "zoom": "12",
    "url": "czernikowo",
    "districts": [],
    "label": "Czernikowo",
    "lng": 18.93902
  },
  {
    "id": "44211",
    "text": "Dobrcz, bydgoski, Kujawsko-pomorskie",
    "text_simple": "Dobrcz",
    "text_gray": "bydgoski",
    "lat": 53.26587,
    "zoom": "12",
    "url": "dobrcz",
    "districts": [],
    "label": "Dobrcz",
    "lng": 18.1479
  },
  {
    "id": "132427",
    "text": "Dobre, radziejowski, Kujawsko-pomorskie",
    "text_simple": "Dobre",
    "text_gray": "radziejowski",
    "lat": 52.68149,
    "zoom": "12",
    "url": "dobre_132427",
    "districts": [],
    "label": "Dobre",
    "lng": 18.57837
  },
  {
    "id": "80227",
    "text": "Dobrzyń nad Wisłą, lipnowski, Kujawsko-pomorskie",
    "text_simple": "Dobrzyń nad Wisłą",
    "text_gray": "lipnowski",
    "lat": 52.63542,
    "zoom": "12",
    "url": "dobrzyn-nad-wisla",
    "districts": [],
    "label": "Dobrzyń nad Wisłą",
    "lng": 19.32333
  },
  {
    "id": "23425",
    "text": "Dolna Grupa, świecki, Kujawsko-pomorskie",
    "text_simple": "Dolna Grupa",
    "text_gray": "świecki",
    "lat": 53.49792,
    "zoom": "12",
    "url": "dolna-grupa",
    "districts": [],
    "label": "Dolna Grupa",
    "lng": 18.68103
  },
  {
    "id": "26413",
    "text": "Drzycim, świecki, Kujawsko-pomorskie",
    "text_simple": "Drzycim",
    "text_gray": "świecki",
    "lat": 53.50974,
    "zoom": "12",
    "url": "drzycim",
    "districts": [],
    "label": "Drzycim",
    "lng": 18.31597
  },
  {
    "id": "79993",
    "text": "Dąbrowa Biskupia, inowrocławski, Kujawsko-pomorskie",
    "text_simple": "Dąbrowa Biskupia",
    "text_gray": "inowrocławski",
    "lat": 52.77645,
    "zoom": "12",
    "url": "dabrowa-biskupia",
    "districts": [],
    "label": "Dąbrowa Biskupia",
    "lng": 18.53387
  },
  {
    "id": "79995",
    "text": "Dąbrowa Chełmińska, bydgoski, Kujawsko-pomorskie",
    "text_simple": "Dąbrowa Chełmińska",
    "text_gray": "bydgoski",
    "lat": 53.17483,
    "zoom": "12",
    "url": "dabrowa-chelminska",
    "districts": [],
    "label": "Dąbrowa Chełmińska",
    "lng": 18.30586
  },
  {
    "id": "27227",
    "text": "Gniewkowo, inowrocławski, Kujawsko-pomorskie",
    "text_simple": "Gniewkowo",
    "text_gray": "inowrocławski",
    "lat": 52.89387,
    "zoom": "12",
    "url": "gniewkowo_27227",
    "districts": [],
    "label": "Gniewkowo",
    "lng": 18.41116
  },
  {
    "id": "45303",
    "text": "Golub-Dobrzyń, golubsko-dobrzyński, Kujawsko-pomorskie",
    "text_simple": "Golub-Dobrzyń",
    "text_gray": "golubsko-dobrzyński",
    "lat": 53.11187,
    "zoom": "12",
    "url": "golub-dobrzyn",
    "districts": [],
    "label": "Golub-Dobrzyń",
    "lng": 19.05372
  },
  {
    "id": "6653",
    "text": "Grudziądz, Kujawsko-pomorskie",
    "text_simple": "Grudziądz",
    "text_gray": "Kujawsko-pomorskie",
    "lat": 53.46469,
    "zoom": "12",
    "url": "grudziadz",
    "districts": [],
    "label": "Grudziądz",
    "lng": 18.77287
  },
  {
    "id": "6567",
    "text": "Grębocin, gm. Lubicz, toruński, Kujawsko-pomorskie",
    "text_simple": "Grębocin",
    "text_gray": "toruński",
    "lat": 53.03509,
    "zoom": "12",
    "url": "grebocin",
    "districts": [],
    "label": "Grębocin",
    "lng": 18.75446
  },
  {
    "id": "85607",
    "text": "Górzno, brodnicki, Kujawsko-pomorskie",
    "text_simple": "Górzno",
    "text_gray": "brodnicki",
    "lat": 53.19612,
    "zoom": "12",
    "url": "gorzno_85607",
    "districts": [],
    "label": "Górzno",
    "lng": 19.64375
  },
  {
    "id": "85279",
    "text": "Głogowo, toruński, Kujawsko-pomorskie",
    "text_simple": "Głogowo",
    "text_gray": "toruński",
    "lat": 53.0132,
    "zoom": "12",
    "url": "glogowo",
    "districts": [],
    "label": "Głogowo",
    "lng": 18.82471
  },
  {
    "id": "6909",
    "text": "Inowrocław, inowrocławski, Kujawsko-pomorskie",
    "text_simple": "Inowrocław",
    "text_gray": "inowrocławski",
    "lat": 52.7935,
    "zoom": "12",
    "url": "inowroclaw",
    "districts": [],
    "label": "Inowrocław",
    "lng": 18.26298
  },
  {
    "id": "115603",
    "text": "Izbica Kujawska, włocławski, Kujawsko-pomorskie",
    "text_simple": "Izbica Kujawska",
    "text_gray": "włocławski",
    "lat": 52.42007,
    "zoom": "12",
    "url": "izbica-kujawska",
    "districts": [],
    "label": "Izbica Kujawska",
    "lng": 18.76606
  },
  {
    "id": "64141",
    "text": "Jabłonowo Pomorskie, brodnicki, Kujawsko-pomorskie",
    "text_simple": "Jabłonowo Pomorskie",
    "text_gray": "brodnicki",
    "lat": 53.38945,
    "zoom": "12",
    "url": "jablonowo-pomorskie",
    "districts": [],
    "label": "Jabłonowo Pomorskie",
    "lng": 19.15512
  },
  {
    "id": "64231",
    "text": "Janikowo, inowrocławski, Kujawsko-pomorskie",
    "text_simple": "Janikowo",
    "text_gray": "inowrocławski",
    "lat": 52.74921,
    "zoom": "12",
    "url": "janikowo_64231",
    "districts": [],
    "label": "Janikowo",
    "lng": 18.11518
  },
  {
    "id": "82017",
    "text": "Janowiec Wielkopolski, żniński, Kujawsko-pomorskie",
    "text_simple": "Janowiec Wielkopolski",
    "text_gray": "żniński",
    "lat": 52.75786,
    "zoom": "12",
    "url": "janowiec-wielkopolski",
    "districts": [],
    "label": "Janowiec Wielkopolski",
    "lng": 17.48731
  },
  {
    "id": "116325",
    "text": "Kamień Krajeński, sępoleński, Kujawsko-pomorskie",
    "text_simple": "Kamień Krajeński",
    "text_gray": "sępoleński",
    "lat": 53.53274,
    "zoom": "12",
    "url": "kamien-krajenski",
    "districts": [],
    "label": "Kamień Krajeński",
    "lng": 17.52202
  },
  {
    "id": "7919",
    "text": "Kcynia, nakielski, Kujawsko-pomorskie",
    "text_simple": "Kcynia",
    "text_gray": "nakielski",
    "lat": 52.99108,
    "zoom": "12",
    "url": "kcynia",
    "districts": [],
    "label": "Kcynia",
    "lng": 17.48937
  },
  {
    "id": "87403",
    "text": "Kikół, lipnowski, Kujawsko-pomorskie",
    "text_simple": "Kikół",
    "text_gray": "lipnowski",
    "lat": 52.91228,
    "zoom": "12",
    "url": "kikol",
    "districts": [],
    "label": "Kikół",
    "lng": 19.12048
  },
  {
    "id": "83513",
    "text": "Koronowo, bydgoski, Kujawsko-pomorskie",
    "text_simple": "Koronowo",
    "text_gray": "bydgoski",
    "lat": 53.31296,
    "zoom": "12",
    "url": "koronowo",
    "districts": [],
    "label": "Koronowo",
    "lng": 17.94148
  },
  {
    "id": "66069",
    "text": "Kowal, włocławski, Kujawsko-pomorskie",
    "text_simple": "Kowal",
    "text_gray": "włocławski",
    "lat": 52.53054,
    "zoom": "12",
    "url": "kowal",
    "districts": [],
    "label": "Kowal",
    "lng": 19.14972
  },
  {
    "id": "47905",
    "text": "Kowalewo Pomorskie, golubsko-dobrzyński, Kujawsko-pomorskie",
    "text_simple": "Kowalewo Pomorskie",
    "text_gray": "golubsko-dobrzyński",
    "lat": 53.15508,
    "zoom": "12",
    "url": "kowalewo-pomorskie",
    "districts": [],
    "label": "Kowalewo Pomorskie",
    "lng": 18.90166
  },
  {
    "id": "9339",
    "text": "Krobia, toruński, Kujawsko-pomorskie",
    "text_simple": "Krobia",
    "text_gray": "toruński",
    "lat": 53.03691,
    "zoom": "12",
    "url": "krobia",
    "districts": [],
    "label": "Krobia",
    "lng": 18.78638
  },
  {
    "id": "66657",
    "text": "Kruszwica, inowrocławski, Kujawsko-pomorskie",
    "text_simple": "Kruszwica",
    "text_gray": "inowrocławski",
    "lat": 52.66974,
    "zoom": "12",
    "url": "kruszwica",
    "districts": [],
    "label": "Kruszwica",
    "lng": 18.33116
  },
  {
    "id": "48987",
    "text": "Lipno, lipnowski, Kujawsko-pomorskie",
    "text_simple": "Lipno",
    "text_gray": "lipnowski",
    "lat": 52.83782,
    "zoom": "12",
    "url": "lipno",
    "districts": [],
    "label": "Lipno",
    "lng": 19.17463
  },
  {
    "id": "100567",
    "text": "Lisewo, chełmiński, Kujawsko-pomorskie",
    "text_simple": "Lisewo",
    "text_gray": "chełmiński",
    "lat": 53.2946,
    "zoom": "12",
    "url": "lisewo_100567",
    "districts": [],
    "label": "Lisewo",
    "lng": 18.6894
  },
  {
    "id": "118947",
    "text": "Lniano, świecki, Kujawsko-pomorskie",
    "text_simple": "Lniano",
    "text_gray": "świecki",
    "lat": 53.52738,
    "zoom": "12",
    "url": "lniano",
    "districts": [],
    "label": "Lniano",
    "lng": 18.21972
  },
  {
    "id": "118955",
    "text": "Lubanie, włocławski, Kujawsko-pomorskie",
    "text_simple": "Lubanie",
    "text_gray": "włocławski",
    "lat": 52.74842,
    "zoom": "12",
    "url": "lubanie",
    "districts": [],
    "label": "Lubanie",
    "lng": 18.92173
  },
  {
    "id": "118975",
    "text": "Lubicz Dolny, toruński, Kujawsko-pomorskie",
    "text_simple": "Lubicz Dolny",
    "text_gray": "toruński",
    "lat": 53.03174,
    "zoom": "12",
    "url": "lubicz-dolny",
    "districts": [],
    "label": "Lubicz Dolny",
    "lng": 18.75342
  },
  {
    "id": "137333",
    "text": "Lubicz Górny, toruński, Kujawsko-pomorskie",
    "text_simple": "Lubicz Górny",
    "text_gray": "toruński",
    "lat": 53.01559,
    "zoom": "12",
    "url": "lubicz-gorny",
    "districts": [],
    "label": "Lubicz Górny",
    "lng": 18.7577
  },
  {
    "id": "10091",
    "text": "Lubień Kujawski, włocławski, Kujawsko-pomorskie",
    "text_simple": "Lubień Kujawski",
    "text_gray": "włocławski",
    "lat": 52.40521,
    "zoom": "12",
    "url": "lubien-kujawski",
    "districts": [],
    "label": "Lubień Kujawski",
    "lng": 19.16602
  },
  {
    "id": "67533",
    "text": "Lubraniec, włocławski, Kujawsko-pomorskie",
    "text_simple": "Lubraniec",
    "text_gray": "włocławski",
    "lat": 52.5413,
    "zoom": "12",
    "url": "lubraniec",
    "districts": [],
    "label": "Lubraniec",
    "lng": 18.83362
  },
  {
    "id": "120103",
    "text": "Mała Nieszawka, gm. Wielka Nieszawka, toruński, Kujawsko-pomorskie",
    "text_simple": "Mała Nieszawka",
    "text_gray": "toruński",
    "lat": 52.9893,
    "zoom": "12",
    "url": "mala-nieszawka",
    "districts": [],
    "label": "Mała Nieszawka",
    "lng": 18.54717
  },
  {
    "id": "32661",
    "text": "Mogilno, mogileński, Kujawsko-pomorskie",
    "text_simple": "Mogilno",
    "text_gray": "mogileński",
    "lat": 52.65346,
    "zoom": "12",
    "url": "mogilno",
    "districts": [],
    "label": "Mogilno",
    "lng": 17.96175
  },
  {
    "id": "69047",
    "text": "Mrocza, nakielski, Kujawsko-pomorskie",
    "text_simple": "Mrocza",
    "text_gray": "nakielski",
    "lat": 53.24567,
    "zoom": "12",
    "url": "mrocza",
    "districts": [],
    "label": "Mrocza",
    "lng": 17.60866
  },
  {
    "id": "32863",
    "text": "Nakło nad Notecią, gm. Nakło Nad Notecią, nakielski, Kujawsko-pomorskie",
    "text_simple": "Nakło nad Notecią",
    "text_gray": "nakielski",
    "lat": 53.14118,
    "zoom": "12",
    "url": "naklo-nad-notecia",
    "districts": [],
    "label": "Nakło nad Notecią",
    "lng": 17.604
  },
  {
    "id": "51069",
    "text": "Niemcz, bydgoski, Kujawsko-pomorskie",
    "text_simple": "Niemcz",
    "text_gray": "bydgoski",
    "lat": 53.18368,
    "zoom": "12",
    "url": "niemcz",
    "districts": [],
    "label": "Niemcz",
    "lng": 18.03597
  },
  {
    "id": "69401",
    "text": "Nowa Wieś Wielka, bydgoski, Kujawsko-pomorskie",
    "text_simple": "Nowa Wieś Wielka",
    "text_gray": "bydgoski",
    "lat": 52.97016,
    "zoom": "12",
    "url": "nowa-wies-wielka_69401",
    "districts": [],
    "label": "Nowa Wieś Wielka",
    "lng": 18.09306
  },
  {
    "id": "12285",
    "text": "Nowe, świecki, Kujawsko-pomorskie",
    "text_simple": "Nowe",
    "text_gray": "świecki",
    "lat": 53.64175,
    "zoom": "12",
    "url": "nowe",
    "districts": [],
    "label": "Nowe",
    "lng": 18.71849
  },
  {
    "id": "69625",
    "text": "Obrowo, toruński, Kujawsko-pomorskie",
    "text_simple": "Obrowo",
    "text_gray": "toruński",
    "lat": 52.97058,
    "zoom": "12",
    "url": "obrowo_69625",
    "districts": [],
    "label": "Obrowo",
    "lng": 18.88203
  },
  {
    "id": "140171",
    "text": "Osie, świecki, Kujawsko-pomorskie",
    "text_simple": "Osie",
    "text_gray": "świecki",
    "lat": 53.59779,
    "zoom": "12",
    "url": "osie",
    "districts": [],
    "label": "Osie",
    "lng": 18.34645
  },
  {
    "id": "13095",
    "text": "Osiek Nad Wisłą, toruński, Kujawsko-pomorskie",
    "text_simple": "Osiek Nad Wisłą",
    "text_gray": "toruński",
    "lat": 52.92786,
    "zoom": "12",
    "url": "osiek-nad-wisla",
    "districts": [],
    "label": "Osiek Nad Wisłą",
    "lng": 18.80208
  },
  {
    "id": "140187",
    "text": "Osielsko, bydgoski, Kujawsko-pomorskie",
    "text_simple": "Osielsko",
    "text_gray": "bydgoski",
    "lat": 53.18813,
    "zoom": "12",
    "url": "osielsko",
    "districts": [],
    "label": "Osielsko",
    "lng": 18.07336
  },
  {
    "id": "121993",
    "text": "Osięciny, radziejowski, Kujawsko-pomorskie",
    "text_simple": "Osięciny",
    "text_gray": "radziejowski",
    "lat": 52.63129,
    "zoom": "12",
    "url": "osieciny",
    "districts": [],
    "label": "Osięciny",
    "lng": 18.72394
  },
  {
    "id": "70331",
    "text": "Pakość, inowrocławski, Kujawsko-pomorskie",
    "text_simple": "Pakość",
    "text_gray": "inowrocławski",
    "lat": 52.80291,
    "zoom": "12",
    "url": "pakosc_70331",
    "districts": [],
    "label": "Pakość",
    "lng": 18.08571
  },
  {
    "id": "52541",
    "text": "Piotrków Kujawski, radziejowski, Kujawsko-pomorskie",
    "text_simple": "Piotrków Kujawski",
    "text_gray": "radziejowski",
    "lat": 52.55,
    "zoom": "12",
    "url": "piotrkow-kujawski",
    "districts": [],
    "label": "Piotrków Kujawski",
    "lng": 18.5
  },
  {
    "id": "71563",
    "text": "Pruszcz, świecki, Kujawsko-pomorskie",
    "text_simple": "Pruszcz",
    "text_gray": "świecki",
    "lat": 53.33092,
    "zoom": "12",
    "url": "pruszcz_71563",
    "districts": [],
    "label": "Pruszcz",
    "lng": 18.19961
  },
  {
    "id": "35563",
    "text": "Raciążek, aleksandrowski, Kujawsko-pomorskie",
    "text_simple": "Raciążek",
    "text_gray": "aleksandrowski",
    "lat": 52.85658,
    "zoom": "12",
    "url": "raciazek",
    "districts": [],
    "label": "Raciążek",
    "lng": 18.80874
  },
  {
    "id": "123737",
    "text": "Radziejów, radziejowski, Kujawsko-pomorskie",
    "text_simple": "Radziejów",
    "text_gray": "radziejowski",
    "lat": 52.62296,
    "zoom": "12",
    "url": "radziejow",
    "districts": [],
    "label": "Radziejów",
    "lng": 18.52907
  },
  {
    "id": "141957",
    "text": "Radzyń Chełmiński, grudziądzki, Kujawsko-pomorskie",
    "text_simple": "Radzyń Chełmiński",
    "text_gray": "grudziądzki",
    "lat": 53.38554,
    "zoom": "12",
    "url": "radzyn-chelminski",
    "districts": [],
    "label": "Radzyń Chełmiński",
    "lng": 18.93601
  },
  {
    "id": "72049",
    "text": "Rogowo, żniński, Kujawsko-pomorskie",
    "text_simple": "Rogowo",
    "text_gray": "żniński",
    "lat": 52.72427,
    "zoom": "12",
    "url": "rogowo_72049",
    "districts": [],
    "label": "Rogowo",
    "lng": 17.6529
  },
  {
    "id": "72161",
    "text": "Rozgarty, toruński, Kujawsko-pomorskie",
    "text_simple": "Rozgarty",
    "text_gray": "toruński",
    "lat": 53.03943,
    "zoom": "12",
    "url": "rozgarty_72161",
    "districts": [],
    "label": "Rozgarty",
    "lng": 18.47862
  },
  {
    "id": "36169",
    "text": "Rypin, rypiński, Kujawsko-pomorskie",
    "text_simple": "Rypin",
    "text_gray": "rypiński",
    "lat": 53.06519,
    "zoom": "12",
    "url": "rypin",
    "districts": [],
    "label": "Rypin",
    "lng": 19.4157
  },
  {
    "id": "124369",
    "text": "Sadki, nakielski, Kujawsko-pomorskie",
    "text_simple": "Sadki",
    "text_gray": "nakielski",
    "lat": 53.15913,
    "zoom": "12",
    "url": "sadki_124369",
    "districts": [],
    "label": "Sadki",
    "lng": 17.45174
  },
  {
    "id": "124679",
    "text": "Skępe, lipnowski, Kujawsko-pomorskie",
    "text_simple": "Skępe",
    "text_gray": "lipnowski",
    "lat": 52.86841,
    "zoom": "12",
    "url": "skepe",
    "districts": [],
    "label": "Skępe",
    "lng": 19.34358
  },
  {
    "id": "54995",
    "text": "Solec Kujawski, bydgoski, Kujawsko-pomorskie",
    "text_simple": "Solec Kujawski",
    "text_gray": "bydgoski",
    "lat": 53.07911,
    "zoom": "12",
    "url": "solec-kujawski",
    "districts": [],
    "label": "Solec Kujawski",
    "lng": 18.22321
  },
  {
    "id": "16513",
    "text": "Strzelno, mogileński, Kujawsko-pomorskie",
    "text_simple": "Strzelno",
    "text_gray": "mogileński",
    "lat": 52.62999,
    "zoom": "12",
    "url": "strzelno_16513",
    "districts": [],
    "label": "Strzelno",
    "lng": 18.17605
  },
  {
    "id": "17103",
    "text": "Szpetal Górny, włocławski, Kujawsko-pomorskie",
    "text_simple": "Szpetal Górny",
    "text_gray": "włocławski",
    "lat": 52.68146,
    "zoom": "12",
    "url": "szpetal-gorny",
    "districts": [],
    "label": "Szpetal Górny",
    "lng": 19.09758
  },
  {
    "id": "144385",
    "text": "Szubin, nakielski, Kujawsko-pomorskie",
    "text_simple": "Szubin",
    "text_gray": "nakielski",
    "lat": 53.0087,
    "zoom": "12",
    "url": "szubin",
    "districts": [],
    "label": "Szubin",
    "lng": 17.74382
  },
  {
    "id": "124481",
    "text": "Sępólno Krajeńskie, sępoleński, Kujawsko-pomorskie",
    "text_simple": "Sępólno Krajeńskie",
    "text_gray": "sępoleński",
    "lat": 53.45469,
    "zoom": "12",
    "url": "sepolno-krajenskie",
    "districts": [],
    "label": "Sępólno Krajeńskie",
    "lng": 17.53593
  },
  {
    "id": "96541",
    "text": "Tarkowo Dolne, bydgoski, Kujawsko-pomorskie",
    "text_simple": "Tarkowo Dolne",
    "text_gray": "bydgoski",
    "lat": 52.95086,
    "zoom": "12",
    "url": "tarkowo-dolne",
    "districts": [],
    "label": "Tarkowo Dolne",
    "lng": 18.1003
  },
  {
    "id": "108035",
    "text": "Topólka, radziejowski, Kujawsko-pomorskie",
    "text_simple": "Topólka",
    "text_gray": "radziejowski",
    "lat": 52.50241,
    "zoom": "12",
    "url": "topolka",
    "districts": [],
    "label": "Topólka",
    "lng": 18.71422
  },
  {
    "id": "38395",
    "text": "Toruń, Kujawsko-pomorskie",
    "text_simple": "Toruń",
    "text_gray": "Kujawsko-pomorskie",
    "lat": 53.00717,
    "zoom": "12",
    "url": "torun",
    "districts": [],
    "label": "Toruń",
    "lng": 18.61052
  },
  {
    "id": "38535",
    "text": "Tuchola, tucholski, Kujawsko-pomorskie",
    "text_simple": "Tuchola",
    "text_gray": "tucholski",
    "lat": 53.58351,
    "zoom": "12",
    "url": "tuchola",
    "districts": [],
    "label": "Tuchola",
    "lng": 17.86441
  },
  {
    "id": "96617",
    "text": "Tłuchowo, lipnowski, Kujawsko-pomorskie",
    "text_simple": "Tłuchowo",
    "text_gray": "lipnowski",
    "lat": 52.7461,
    "zoom": "12",
    "url": "tluchowo",
    "districts": [],
    "label": "Tłuchowo",
    "lng": 19.46636
  },
  {
    "id": "75009",
    "text": "Unisław, chełmiński, Kujawsko-pomorskie",
    "text_simple": "Unisław",
    "text_gray": "chełmiński",
    "lat": 53.21082,
    "zoom": "12",
    "url": "unislaw_75009",
    "districts": [],
    "label": "Unisław",
    "lng": 18.38368
  },
  {
    "id": "108469",
    "text": "Warlubie, świecki, Kujawsko-pomorskie",
    "text_simple": "Warlubie",
    "text_gray": "świecki",
    "lat": 53.58537,
    "zoom": "12",
    "url": "warlubie",
    "districts": [],
    "label": "Warlubie",
    "lng": 18.62936
  },
  {
    "id": "109811",
    "text": "Więcbork, sępoleński, Kujawsko-pomorskie",
    "text_simple": "Więcbork",
    "text_gray": "sępoleński",
    "lat": 53.34818,
    "zoom": "12",
    "url": "wiecbork",
    "districts": [],
    "label": "Więcbork",
    "lng": 17.48532
  },
  {
    "id": "19011",
    "text": "Wąbrzeźno, wąbrzeski, Kujawsko-pomorskie",
    "text_simple": "Wąbrzeźno",
    "text_gray": "wąbrzeski",
    "lat": 53.28104,
    "zoom": "12",
    "url": "wabrzezno",
    "districts": [],
    "label": "Wąbrzeźno",
    "lng": 18.94751
  },
  {
    "id": "19403",
    "text": "Włocławek, Kujawsko-pomorskie",
    "text_simple": "Włocławek",
    "text_gray": "Kujawsko-pomorskie",
    "lat": 52.65975,
    "zoom": "12",
    "url": "wloclawek",
    "districts": [],
    "label": "Włocławek",
    "lng": 19.07799
  },
  {
    "id": "20445",
    "text": "Zakrzewo, aleksandrowski, Kujawsko-pomorskie",
    "text_simple": "Zakrzewo",
    "text_gray": "aleksandrowski",
    "lat": 52.75706,
    "zoom": "12",
    "url": "zakrzewo_20445",
    "districts": [],
    "label": "Zakrzewo",
    "lng": 18.63005
  },
  {
    "id": "20505",
    "text": "Zamość, nakielski, Kujawsko-pomorskie",
    "text_simple": "Zamość",
    "text_gray": "nakielski",
    "lat": 53.07307,
    "zoom": "12",
    "url": "zamosc_20505",
    "districts": [],
    "label": "Zamość",
    "lng": 17.81075
  },
  {
    "id": "20891",
    "text": "Zielonka, bydgoski, Kujawsko-pomorskie",
    "text_simple": "Zielonka",
    "text_gray": "bydgoski",
    "lat": 53.06291,
    "zoom": "12",
    "url": "zielonka_20891",
    "districts": [],
    "label": "Zielonka",
    "lng": 17.94642
  },
  {
    "id": "148143",
    "text": "Złotniki Kujawskie, inowrocławski, Kujawsko-pomorskie",
    "text_simple": "Złotniki Kujawskie",
    "text_gray": "inowrocławski",
    "lat": 52.90435,
    "zoom": "12",
    "url": "zlotniki-kujawskie",
    "districts": [],
    "label": "Złotniki Kujawskie",
    "lng": 18.1436
  },
  {
    "id": "100845",
    "text": "Łabiszyn, żniński, Kujawsko-pomorskie",
    "text_simple": "Łabiszyn",
    "text_gray": "żniński",
    "lat": 52.95,
    "zoom": "12",
    "url": "labiszyn",
    "districts": [],
    "label": "Łabiszyn",
    "lng": 17.91667
  },
  {
    "id": "137675",
    "text": "Łasin, grudziądzki, Kujawsko-pomorskie",
    "text_simple": "Łasin",
    "text_gray": "grudziądzki",
    "lat": 53.51828,
    "zoom": "12",
    "url": "lasin",
    "districts": [],
    "label": "Łasin",
    "lng": 19.08556
  },
  {
    "id": "89897",
    "text": "Łochowo, bydgoski, Kujawsko-pomorskie",
    "text_simple": "Łochowo",
    "text_gray": "bydgoski",
    "lat": 53.12214,
    "zoom": "12",
    "url": "lochowo",
    "districts": [],
    "label": "Łochowo",
    "lng": 17.83898
  },
  {
    "id": "50081",
    "text": "Łubianka, toruński, Kujawsko-pomorskie",
    "text_simple": "Łubianka",
    "text_gray": "toruński",
    "lat": 53.13594,
    "zoom": "12",
    "url": "lubianka_50081",
    "districts": [],
    "label": "Łubianka",
    "lng": 18.47906
  },
  {
    "id": "138349",
    "text": "Łysomice, toruński, Kujawsko-pomorskie",
    "text_simple": "Łysomice",
    "text_gray": "toruński",
    "lat": 53.08551,
    "zoom": "12",
    "url": "lysomice_138349",
    "districts": [],
    "label": "Łysomice",
    "lng": 18.62221
  },
  {
    "id": "137747",
    "text": "Łążynek, toruński, Kujawsko-pomorskie",
    "text_simple": "Łążynek",
    "text_gray": "toruński",
    "lat": 53.02803,
    "zoom": "12",
    "url": "lazynek",
    "districts": [],
    "label": "Łążynek",
    "lng": 18.88288
  },
  {
    "id": "74449",
    "text": "Śliwice, tucholski, Kujawsko-pomorskie",
    "text_simple": "Śliwice",
    "text_gray": "tucholski",
    "lat": 53.71413,
    "zoom": "12",
    "url": "sliwice_74449",
    "districts": [],
    "label": "Śliwice",
    "lng": 18.18207
  },
  {
    "id": "74511",
    "text": "Świecie, świecki, Kujawsko-pomorskie",
    "text_simple": "Świecie",
    "text_gray": "świecki",
    "lat": 53.40709,
    "zoom": "12",
    "url": "swiecie",
    "districts": [],
    "label": "Świecie",
    "lng": 18.44439
  },
  {
    "id": "41793",
    "text": "Żnin, żniński, Kujawsko-pomorskie",
    "text_simple": "Żnin",
    "text_gray": "żniński",
    "lat": 52.848,
    "zoom": "12",
    "url": "znin",
    "districts": [],
    "label": "Żnin",
    "lng": 17.73255
  },
  {
    "id": "2217",
    "text": "Adamów, łukowski, Lubelskie",
    "text_simple": "Adamów",
    "text_gray": "łukowski",
    "lat": 51.74375,
    "zoom": "12",
    "url": "adamow_2217",
    "districts": [],
    "label": "Adamów",
    "lng": 22.26061
  },
  {
    "id": "1725",
    "text": "Annopol, kraśnicki, Lubelskie",
    "text_simple": "Annopol",
    "text_gray": "kraśnicki",
    "lat": 50.88556,
    "zoom": "12",
    "url": "annopol_1725",
    "districts": [],
    "label": "Annopol",
    "lng": 21.86002
  },
  {
    "id": "2309",
    "text": "Baranów, puławski, Lubelskie",
    "text_simple": "Baranów",
    "text_gray": "puławski",
    "lat": 51.55741,
    "zoom": "12",
    "url": "baranow_2309",
    "districts": [],
    "label": "Baranów",
    "lng": 22.13675
  },
  {
    "id": "2449",
    "text": "Bełżec, tomaszowski, Lubelskie",
    "text_simple": "Bełżec",
    "text_gray": "tomaszowski",
    "lat": 50.38427,
    "zoom": "12",
    "url": "belzec",
    "districts": [],
    "label": "Bełżec",
    "lng": 23.43873
  },
  {
    "id": "1507",
    "text": "Bełżyce, lubelski, Lubelskie",
    "text_simple": "Bełżyce",
    "text_gray": "lubelski",
    "lat": 51.17378,
    "zoom": "12",
    "url": "belzyce",
    "districts": [],
    "label": "Bełżyce",
    "lng": 22.286
  },
  {
    "id": "1555",
    "text": "Biała Podlaska, Lubelskie",
    "text_simple": "Biała Podlaska",
    "text_gray": "Lubelskie",
    "lat": 52.04282,
    "zoom": "12",
    "url": "biala-podlaska",
    "districts": [],
    "label": "Biała Podlaska",
    "lng": 23.11088
  },
  {
    "id": "21423",
    "text": "Biłgoraj, biłgorajski, Lubelskie",
    "text_simple": "Biłgoraj",
    "text_gray": "biłgorajski",
    "lat": 50.53669,
    "zoom": "12",
    "url": "bilgoraj",
    "districts": [],
    "label": "Biłgoraj",
    "lng": 22.72358
  },
  {
    "id": "60737",
    "text": "Borki, radzyński, Lubelskie",
    "text_simple": "Borki",
    "text_gray": "radzyński",
    "lat": 51.71927,
    "zoom": "12",
    "url": "borki_60737",
    "districts": [],
    "label": "Borki",
    "lng": 22.52628
  },
  {
    "id": "22157",
    "text": "Bychawa, lubelski, Lubelskie",
    "text_simple": "Bychawa",
    "text_gray": "lubelski",
    "lat": 51.01295,
    "zoom": "12",
    "url": "bychawa",
    "districts": [],
    "label": "Bychawa",
    "lng": 22.53739
  },
  {
    "id": "4271",
    "text": "Chełm, Lubelskie",
    "text_simple": "Chełm",
    "text_gray": "Lubelskie",
    "lat": 51.13296,
    "zoom": "12",
    "url": "chelm",
    "districts": [],
    "label": "Chełm",
    "lng": 23.47468
  },
  {
    "id": "43427",
    "text": "Chodel, opolski, Lubelskie",
    "text_simple": "Chodel",
    "text_gray": "opolski",
    "lat": 51.11213,
    "zoom": "12",
    "url": "chodel",
    "districts": [],
    "label": "Chodel",
    "lng": 22.13393
  },
  {
    "id": "43451",
    "text": "Chomęciska Małe, zamojski, Lubelskie",
    "text_simple": "Chomęciska Małe",
    "text_gray": "zamojski",
    "lat": 50.81035,
    "zoom": "12",
    "url": "chomeciska-male",
    "districts": [],
    "label": "Chomęciska Małe",
    "lng": 23.2037
  },
  {
    "id": "22733",
    "text": "Ciecierzyn, lubelski, Lubelskie",
    "text_simple": "Ciecierzyn",
    "text_gray": "lubelski",
    "lat": 51.31716,
    "zoom": "12",
    "url": "ciecierzyn_22733",
    "districts": [],
    "label": "Ciecierzyn",
    "lng": 22.60876
  },
  {
    "id": "43671",
    "text": "Cyców, łęczyński, Lubelskie",
    "text_simple": "Cyców",
    "text_gray": "łęczyński",
    "lat": 51.30234,
    "zoom": "12",
    "url": "cycow",
    "districts": [],
    "label": "Cyców",
    "lng": 23.13462
  },
  {
    "id": "43805",
    "text": "Czemierniki, radzyński, Lubelskie",
    "text_simple": "Czemierniki",
    "text_gray": "radzyński",
    "lat": 51.67238,
    "zoom": "12",
    "url": "czemierniki",
    "districts": [],
    "label": "Czemierniki",
    "lng": 22.63778
  },
  {
    "id": "26361",
    "text": "Drelów, bialski, Lubelskie",
    "text_simple": "Drelów",
    "text_gray": "bialski",
    "lat": 51.91117,
    "zoom": "12",
    "url": "drelow",
    "districts": [],
    "label": "Drelów",
    "lng": 22.87206
  },
  {
    "id": "26115",
    "text": "Dęblin, rycki, Lubelskie",
    "text_simple": "Dęblin",
    "text_gray": "rycki",
    "lat": 51.56609,
    "zoom": "12",
    "url": "deblin",
    "districts": [],
    "label": "Dęblin",
    "lng": 21.85935
  },
  {
    "id": "44131",
    "text": "Dębowa Kłoda, parczewski, Lubelskie",
    "text_simple": "Dębowa Kłoda",
    "text_gray": "parczewski",
    "lat": 51.59553,
    "zoom": "12",
    "url": "debowa-kloda",
    "districts": [],
    "label": "Dębowa Kłoda",
    "lng": 23.00741
  },
  {
    "id": "26603",
    "text": "Fajsławice, krasnostawski, Lubelskie",
    "text_simple": "Fajsławice",
    "text_gray": "krasnostawski",
    "lat": 51.09772,
    "zoom": "12",
    "url": "fajslawice",
    "districts": [],
    "label": "Fajsławice",
    "lng": 22.9614
  },
  {
    "id": "114239",
    "text": "Firlej, lubartowski, Lubelskie",
    "text_simple": "Firlej",
    "text_gray": "lubartowski",
    "lat": 51.55722,
    "zoom": "12",
    "url": "firlej_114239",
    "districts": [],
    "label": "Firlej",
    "lng": 22.50874
  },
  {
    "id": "23775",
    "text": "Frampol, biłgorajski, Lubelskie",
    "text_simple": "Frampol",
    "text_gray": "biłgorajski",
    "lat": 50.67054,
    "zoom": "12",
    "url": "frampol",
    "districts": [],
    "label": "Frampol",
    "lng": 22.6717
  },
  {
    "id": "132933",
    "text": "Garbów I, lubelski, Lubelskie",
    "text_simple": "Garbów I",
    "text_gray": "lubelski",
    "lat": 51.35067,
    "zoom": "12",
    "url": "garbow-i",
    "districts": [],
    "label": "Garbów I",
    "lng": 22.34136
  },
  {
    "id": "114837",
    "text": "Glinne, łukowski, Lubelskie",
    "text_simple": "Glinne",
    "text_gray": "łukowski",
    "lat": 51.7581,
    "zoom": "12",
    "url": "glinne_114837",
    "districts": [],
    "label": "Glinne",
    "lng": 22.28157
  },
  {
    "id": "115231",
    "text": "Grabów Szlachecki, rycki, Lubelskie",
    "text_simple": "Grabów Szlachecki",
    "text_gray": "rycki",
    "lat": 51.70046,
    "zoom": "12",
    "url": "grabow-szlachecki",
    "districts": [],
    "label": "Grabów Szlachecki",
    "lng": 22.09858
  },
  {
    "id": "27415",
    "text": "Góra Puławska, gm. Puławy, puławski, Lubelskie",
    "text_simple": "Góra Puławska",
    "text_gray": "puławski",
    "lat": 51.42209,
    "zoom": "12",
    "url": "gora-pulawska",
    "districts": [],
    "label": "Góra Puławska",
    "lng": 21.95676
  },
  {
    "id": "85973",
    "text": "Hrubieszów, hrubieszowski, Lubelskie",
    "text_simple": "Hrubieszów",
    "text_gray": "hrubieszowski",
    "lat": 50.80882,
    "zoom": "12",
    "url": "hrubieszow",
    "districts": [],
    "label": "Hrubieszów",
    "lng": 23.8979
  },
  {
    "id": "134415",
    "text": "Janów Lubelski, janowski, Lubelskie",
    "text_simple": "Janów Lubelski",
    "text_gray": "janowski",
    "lat": 50.70599,
    "zoom": "12",
    "url": "janow-lubelski",
    "districts": [],
    "label": "Janów Lubelski",
    "lng": 22.4106
  },
  {
    "id": "64309",
    "text": "Janów Podlaski, bialski, Lubelskie",
    "text_simple": "Janów Podlaski",
    "text_gray": "bialski",
    "lat": 52.196,
    "zoom": "12",
    "url": "janow-podlaski",
    "districts": [],
    "label": "Janów Podlaski",
    "lng": 23.211
  },
  {
    "id": "28283",
    "text": "Jastków, lubelski, Lubelskie",
    "text_simple": "Jastków",
    "text_gray": "lubelski",
    "lat": 51.30254,
    "zoom": "12",
    "url": "jastkow",
    "districts": [],
    "label": "Jastków",
    "lng": 22.43631
  },
  {
    "id": "116039",
    "text": "Józefów, biłgorajski, Lubelskie",
    "text_simple": "Józefów",
    "text_gray": "biłgorajski",
    "lat": 50.48121,
    "zoom": "12",
    "url": "jozefow_116039",
    "districts": [],
    "label": "Józefów",
    "lng": 23.05377
  },
  {
    "id": "7577",
    "text": "Kamionka, lubartowski, Lubelskie",
    "text_simple": "Kamionka",
    "text_gray": "lubartowski",
    "lat": 51.4707,
    "zoom": "12",
    "url": "kamionka_7577",
    "districts": [],
    "label": "Kamionka",
    "lng": 22.46367
  },
  {
    "id": "116397",
    "text": "Karczmiska Pierwsze, opolski, Lubelskie",
    "text_simple": "Karczmiska Pierwsze",
    "text_gray": "opolski",
    "lat": 51.23418,
    "zoom": "12",
    "url": "karczmiska-pierwsze",
    "districts": [],
    "label": "Karczmiska Pierwsze",
    "lng": 21.99214
  },
  {
    "id": "29001",
    "text": "Kazimierz Dolny, puławski, Lubelskie",
    "text_simple": "Kazimierz Dolny",
    "text_gray": "puławski",
    "lat": 51.32266,
    "zoom": "12",
    "url": "kazimierz-dolny",
    "districts": [],
    "label": "Kazimierz Dolny",
    "lng": 21.94895
  },
  {
    "id": "83305",
    "text": "Kock, lubartowski, Lubelskie",
    "text_simple": "Kock",
    "text_gray": "lubartowski",
    "lat": 51.63945,
    "zoom": "12",
    "url": "kock",
    "districts": [],
    "label": "Kock",
    "lng": 22.44786
  },
  {
    "id": "87747",
    "text": "Komarówka Podlaska, radzyński, Lubelskie",
    "text_simple": "Komarówka Podlaska",
    "text_gray": "radzyński",
    "lat": 51.8026,
    "zoom": "12",
    "url": "komarowka-podlaska",
    "districts": [],
    "label": "Komarówka Podlaska",
    "lng": 22.94526
  },
  {
    "id": "29669",
    "text": "Konopnica, lubelski, Lubelskie",
    "text_simple": "Konopnica",
    "text_gray": "lubelski",
    "lat": 51.22547,
    "zoom": "12",
    "url": "konopnica_29669",
    "districts": [],
    "label": "Konopnica",
    "lng": 22.45948
  },
  {
    "id": "65779",
    "text": "Konstantynów, bialski, Lubelskie",
    "text_simple": "Konstantynów",
    "text_gray": "bialski",
    "lat": 52.20927,
    "zoom": "12",
    "url": "konstantynow_65779",
    "districts": [],
    "label": "Konstantynów",
    "lng": 23.08126
  },
  {
    "id": "29693",
    "text": "Końskowola, puławski, Lubelskie",
    "text_simple": "Końskowola",
    "text_gray": "puławski",
    "lat": 51.40933,
    "zoom": "12",
    "url": "konskowola",
    "districts": [],
    "label": "Końskowola",
    "lng": 22.05174
  },
  {
    "id": "66543",
    "text": "Krasnobród, zamojski, Lubelskie",
    "text_simple": "Krasnobród",
    "text_gray": "zamojski",
    "lat": 50.54408,
    "zoom": "12",
    "url": "krasnobrod",
    "districts": [],
    "label": "Krasnobród",
    "lng": 23.21343
  },
  {
    "id": "136619",
    "text": "Krasnystaw, krasnostawski, Lubelskie",
    "text_simple": "Krasnystaw",
    "text_gray": "krasnostawski",
    "lat": 50.98628,
    "zoom": "12",
    "url": "krasnystaw",
    "districts": [],
    "label": "Krasnystaw",
    "lng": 23.17521
  },
  {
    "id": "30429",
    "text": "Kraśnik, kraśnicki, Lubelskie",
    "text_simple": "Kraśnik",
    "text_gray": "kraśnicki",
    "lat": 50.92237,
    "zoom": "12",
    "url": "krasnik",
    "districts": [],
    "label": "Kraśnik",
    "lng": 22.22704
  },
  {
    "id": "84475",
    "text": "Krzywda, łukowski, Lubelskie",
    "text_simple": "Krzywda",
    "text_gray": "łukowski",
    "lat": 51.79394,
    "zoom": "12",
    "url": "krzywda_84475",
    "districts": [],
    "label": "Krzywda",
    "lng": 22.20466
  },
  {
    "id": "118521",
    "text": "Kurów, puławski, Lubelskie",
    "text_simple": "Kurów",
    "text_gray": "puławski",
    "lat": 51.38883,
    "zoom": "12",
    "url": "kurow_118521",
    "districts": [],
    "label": "Kurów",
    "lng": 22.18723
  },
  {
    "id": "117077",
    "text": "Kłoczew, rycki, Lubelskie",
    "text_simple": "Kłoczew",
    "text_gray": "rycki",
    "lat": 51.72184,
    "zoom": "12",
    "url": "kloczew",
    "districts": [],
    "label": "Kłoczew",
    "lng": 21.96366
  },
  {
    "id": "67313",
    "text": "Lubartów, lubartowski, Lubelskie",
    "text_simple": "Lubartów",
    "text_gray": "lubartowski",
    "lat": 51.45928,
    "zoom": "12",
    "url": "lubartow",
    "districts": [],
    "label": "Lubartów",
    "lng": 22.60895
  },
  {
    "id": "10119",
    "text": "Lublin, Lubelskie",
    "text_simple": "Lublin",
    "text_gray": "Lubelskie",
    "lat": 51.23955,
    "zoom": "13",
    "url": "lublin",
    "districts": [],
    "label": "Lublin",
    "lng": 22.55257
  },
  {
    "id": "50403",
    "text": "Markuszów, puławski, Lubelskie",
    "text_simple": "Markuszów",
    "text_gray": "puławski",
    "lat": 51.37432,
    "zoom": "12",
    "url": "markuszow",
    "districts": [],
    "label": "Markuszów",
    "lng": 22.26281
  },
  {
    "id": "138721",
    "text": "Michów, lubartowski, Lubelskie",
    "text_simple": "Michów",
    "text_gray": "lubartowski",
    "lat": 51.52167,
    "zoom": "12",
    "url": "michow_138721",
    "districts": [],
    "label": "Michów",
    "lng": 22.31028
  },
  {
    "id": "138851",
    "text": "Milejów, łęczyński, Lubelskie",
    "text_simple": "Milejów",
    "text_gray": "łęczyński",
    "lat": 51.22235,
    "zoom": "12",
    "url": "milejow_138851",
    "districts": [],
    "label": "Milejów",
    "lng": 22.92795
  },
  {
    "id": "68769",
    "text": "Milejów-Osada, łęczyński, Lubelskie",
    "text_simple": "Milejów-Osada",
    "text_gray": "łęczyński",
    "lat": 51.23158,
    "zoom": "12",
    "url": "milejow-osada",
    "districts": [],
    "label": "Milejów-Osada",
    "lng": 22.92692
  },
  {
    "id": "68731",
    "text": "Międzyrzec Podlaski, bialski, Lubelskie",
    "text_simple": "Międzyrzec Podlaski",
    "text_gray": "bialski",
    "lat": 51.98589,
    "zoom": "12",
    "url": "miedzyrzec-podlaski",
    "districts": [],
    "label": "Międzyrzec Podlaski",
    "lng": 22.78325
  },
  {
    "id": "91081",
    "text": "Modliborzyce, janowski, Lubelskie",
    "text_simple": "Modliborzyce",
    "text_gray": "janowski",
    "lat": 50.75307,
    "zoom": "12",
    "url": "modliborzyce_91081",
    "districts": [],
    "label": "Modliborzyce",
    "lng": 22.33063
  },
  {
    "id": "120827",
    "text": "Motycz, lubelski, Lubelskie",
    "text_simple": "Motycz",
    "text_gray": "lubelski",
    "lat": 51.24016,
    "zoom": "12",
    "url": "motycz",
    "districts": [],
    "label": "Motycz",
    "lng": 22.38106
  },
  {
    "id": "12025",
    "text": "Nałęczów, puławski, Lubelskie",
    "text_simple": "Nałęczów",
    "text_gray": "puławski",
    "lat": 51.28686,
    "zoom": "12",
    "url": "naleczow",
    "districts": [],
    "label": "Nałęczów",
    "lng": 22.21664
  },
  {
    "id": "102581",
    "text": "Niedrzwica Duża, lubelski, Lubelskie",
    "text_simple": "Niedrzwica Duża",
    "text_gray": "lubelski",
    "lat": 51.11453,
    "zoom": "12",
    "url": "niedrzwica-duza",
    "districts": [],
    "label": "Niedrzwica Duża",
    "lng": 22.39014
  },
  {
    "id": "69229",
    "text": "Niedrzwica Kościelna, lubelski, Lubelskie",
    "text_simple": "Niedrzwica Kościelna",
    "text_gray": "lubelski",
    "lat": 51.08268,
    "zoom": "12",
    "url": "niedrzwica-koscielna",
    "districts": [],
    "label": "Niedrzwica Kościelna",
    "lng": 22.36741
  },
  {
    "id": "121063",
    "text": "Niemce, lubelski, Lubelskie",
    "text_simple": "Niemce",
    "text_gray": "lubelski",
    "lat": 51.35863,
    "zoom": "12",
    "url": "niemce",
    "districts": [],
    "label": "Niemce",
    "lng": 22.63099
  },
  {
    "id": "140129",
    "text": "Opole Lubelskie, opolski, Lubelskie",
    "text_simple": "Opole Lubelskie",
    "text_gray": "opolski",
    "lat": 51.14663,
    "zoom": "12",
    "url": "opole-lubelskie",
    "districts": [],
    "label": "Opole Lubelskie",
    "lng": 21.96701
  },
  {
    "id": "52127",
    "text": "Ostrów Lubelski, lubartowski, Lubelskie",
    "text_simple": "Ostrów Lubelski",
    "text_gray": "lubartowski",
    "lat": 51.49592,
    "zoom": "12",
    "url": "ostrow-lubelski",
    "districts": [],
    "label": "Ostrów Lubelski",
    "lng": 22.85794
  },
  {
    "id": "122225",
    "text": "Parczew, parczewski, Lubelskie",
    "text_simple": "Parczew",
    "text_gray": "parczewski",
    "lat": 51.63806,
    "zoom": "12",
    "url": "parczew",
    "districts": [],
    "label": "Parczew",
    "lng": 22.91263
  },
  {
    "id": "70513",
    "text": "Piaski, świdnicki, Lubelskie",
    "text_simple": "Piaski",
    "text_gray": "świdnicki",
    "lat": 51.13749,
    "zoom": "12",
    "url": "piaski_70513",
    "districts": [],
    "label": "Piaski",
    "lng": 22.84996
  },
  {
    "id": "70681",
    "text": "Piotrowice, lubelski, Lubelskie",
    "text_simple": "Piotrowice",
    "text_gray": "lubelski",
    "lat": 51.08617,
    "zoom": "12",
    "url": "piotrowice_70681",
    "districts": [],
    "label": "Piotrowice",
    "lng": 22.47856
  },
  {
    "id": "13897",
    "text": "Poniatowa, opolski, Lubelskie",
    "text_simple": "Poniatowa",
    "text_gray": "opolski",
    "lat": 51.19099,
    "zoom": "12",
    "url": "poniatowa",
    "districts": [],
    "label": "Poniatowa",
    "lng": 22.06949
  },
  {
    "id": "71757",
    "text": "Puławy, puławski, Lubelskie",
    "text_simple": "Puławy",
    "text_gray": "puławski",
    "lat": 51.42209,
    "zoom": "12",
    "url": "pulawy",
    "districts": [],
    "label": "Puławy",
    "lng": 21.95676
  },
  {
    "id": "140799",
    "text": "Płoskie, zamojski, Lubelskie",
    "text_simple": "Płoskie",
    "text_gray": "zamojski",
    "lat": 50.72215,
    "zoom": "12",
    "url": "ploskie_140799",
    "districts": [],
    "label": "Płoskie",
    "lng": 23.18219
  },
  {
    "id": "71833",
    "text": "Radawiec Duży, lubelski, Lubelskie",
    "text_simple": "Radawiec Duży",
    "text_gray": "lubelski",
    "lat": 51.19656,
    "zoom": "12",
    "url": "radawiec-duzy",
    "districts": [],
    "label": "Radawiec Duży",
    "lng": 22.39079
  },
  {
    "id": "14721",
    "text": "Radzyń Podlaski, radzyński, Lubelskie",
    "text_simple": "Radzyń Podlaski",
    "text_gray": "radzyński",
    "lat": 51.78528,
    "zoom": "12",
    "url": "radzyn-podlaski",
    "districts": [],
    "label": "Radzyń Podlaski",
    "lng": 22.6237
  },
  {
    "id": "35703",
    "text": "Ratoszyn Pierwszy, opolski, Lubelskie",
    "text_simple": "Ratoszyn Pierwszy",
    "text_gray": "opolski",
    "lat": 51.08417,
    "zoom": "12",
    "url": "ratoszyn-pierwszy",
    "districts": [],
    "label": "Ratoszyn Pierwszy",
    "lng": 22.15716
  },
  {
    "id": "94029",
    "text": "Rejowiec, chełmski, Lubelskie",
    "text_simple": "Rejowiec",
    "text_gray": "chełmski",
    "lat": 51.09146,
    "zoom": "12",
    "url": "rejowiec_94029",
    "districts": [],
    "label": "Rejowiec",
    "lng": 23.28478
  },
  {
    "id": "35729",
    "text": "Rejowiec Fabryczny, chełmski, Lubelskie",
    "text_simple": "Rejowiec Fabryczny",
    "text_gray": "chełmski",
    "lat": 51.11676,
    "zoom": "12",
    "url": "rejowiec-fabryczny",
    "districts": [],
    "label": "Rejowiec Fabryczny",
    "lng": 23.24467
  },
  {
    "id": "124245",
    "text": "Ryki, rycki, Lubelskie",
    "text_simple": "Ryki",
    "text_gray": "rycki",
    "lat": 51.62642,
    "zoom": "12",
    "url": "ryki",
    "districts": [],
    "label": "Ryki",
    "lng": 21.93399
  },
  {
    "id": "124465",
    "text": "Serokomla, łukowski, Lubelskie",
    "text_simple": "Serokomla",
    "text_gray": "łukowski",
    "lat": 51.70065,
    "zoom": "12",
    "url": "serokomla",
    "districts": [],
    "label": "Serokomla",
    "lng": 22.33533
  },
  {
    "id": "124629",
    "text": "Sitaniec, zamojski, Lubelskie",
    "text_simple": "Sitaniec",
    "text_gray": "zamojski",
    "lat": 50.75161,
    "zoom": "12",
    "url": "sitaniec",
    "districts": [],
    "label": "Sitaniec",
    "lng": 23.24395
  },
  {
    "id": "73581",
    "text": "Stoczek Łukowski, łukowski, Lubelskie",
    "text_simple": "Stoczek Łukowski",
    "text_gray": "łukowski",
    "lat": 51.96265,
    "zoom": "12",
    "url": "stoczek-lukowski",
    "districts": [],
    "label": "Stoczek Łukowski",
    "lng": 21.96901
  },
  {
    "id": "16393",
    "text": "Stężyca, rycki, Lubelskie",
    "text_simple": "Stężyca",
    "text_gray": "rycki",
    "lat": 51.58142,
    "zoom": "12",
    "url": "stezyca",
    "districts": [],
    "label": "Stężyca",
    "lng": 21.77238
  },
  {
    "id": "107247",
    "text": "Szczebrzeszyn, zamojski, Lubelskie",
    "text_simple": "Szczebrzeszyn",
    "text_gray": "zamojski",
    "lat": 50.6944,
    "zoom": "12",
    "url": "szczebrzeszyn",
    "districts": [],
    "label": "Szczebrzeszyn",
    "lng": 22.98319
  },
  {
    "id": "126331",
    "text": "Tarnogród, biłgorajski, Lubelskie",
    "text_simple": "Tarnogród",
    "text_gray": "biłgorajski",
    "lat": 50.36062,
    "zoom": "12",
    "url": "tarnogrod",
    "districts": [],
    "label": "Tarnogród",
    "lng": 22.74334
  },
  {
    "id": "144691",
    "text": "Terespol, bialski, Lubelskie",
    "text_simple": "Terespol",
    "text_gray": "bialski",
    "lat": 52.0729,
    "zoom": "12",
    "url": "terespol_144691",
    "districts": [],
    "label": "Terespol",
    "lng": 23.60896
  },
  {
    "id": "96667",
    "text": "Tomaszów Lubelski, tomaszowski, Lubelskie",
    "text_simple": "Tomaszów Lubelski",
    "text_gray": "tomaszowski",
    "lat": 50.44568,
    "zoom": "12",
    "url": "tomaszow-lubelski",
    "districts": [],
    "label": "Tomaszów Lubelski",
    "lng": 23.41846
  },
  {
    "id": "17515",
    "text": "Trawniki, świdnicki, Lubelskie",
    "text_simple": "Trawniki",
    "text_gray": "świdnicki",
    "lat": 51.13534,
    "zoom": "12",
    "url": "trawniki",
    "districts": [],
    "label": "Trawniki",
    "lng": 23.00476
  },
  {
    "id": "56683",
    "text": "Turka, gm. Wólka, lubelski, Lubelskie",
    "text_simple": "Turka",
    "text_gray": "lubelski",
    "lat": 51.28307,
    "zoom": "12",
    "url": "turka_56683",
    "districts": [],
    "label": "Turka",
    "lng": 22.6742
  },
  {
    "id": "108215",
    "text": "Turobin, biłgorajski, Lubelskie",
    "text_simple": "Turobin",
    "text_gray": "biłgorajski",
    "lat": 50.8228,
    "zoom": "12",
    "url": "turobin",
    "districts": [],
    "label": "Turobin",
    "lng": 22.74459
  },
  {
    "id": "145059",
    "text": "Urszulin, włodawski, Lubelskie",
    "text_simple": "Urszulin",
    "text_gray": "włodawski",
    "lat": 51.3944,
    "zoom": "12",
    "url": "urszulin_145059",
    "districts": [],
    "label": "Urszulin",
    "lng": 23.19243
  },
  {
    "id": "96997",
    "text": "Urzędów, kraśnicki, Lubelskie",
    "text_simple": "Urzędów",
    "text_gray": "kraśnicki",
    "lat": 50.99367,
    "zoom": "12",
    "url": "urzedow",
    "districts": [],
    "label": "Urzędów",
    "lng": 22.14434
  },
  {
    "id": "98213",
    "text": "Werbkowice, hrubieszowski, Lubelskie",
    "text_simple": "Werbkowice",
    "text_gray": "hrubieszowski",
    "lat": 50.75315,
    "zoom": "12",
    "url": "werbkowice",
    "districts": [],
    "label": "Werbkowice",
    "lng": 23.76874
  },
  {
    "id": "19345",
    "text": "Wisznice, bialski, Lubelskie",
    "text_simple": "Wisznice",
    "text_gray": "bialski",
    "lat": 51.78815,
    "zoom": "12",
    "url": "wisznice",
    "districts": [],
    "label": "Wisznice",
    "lng": 23.20994
  },
  {
    "id": "98619",
    "text": "Wohyń, radzyński, Lubelskie",
    "text_simple": "Wohyń",
    "text_gray": "radzyński",
    "lat": 51.7558,
    "zoom": "12",
    "url": "wohyn",
    "districts": [],
    "label": "Wohyń",
    "lng": 22.78592
  },
  {
    "id": "19437",
    "text": "Wojcieszków, łukowski, Lubelskie",
    "text_simple": "Wojcieszków",
    "text_gray": "łukowski",
    "lat": 51.76784,
    "zoom": "12",
    "url": "wojcieszkow",
    "districts": [],
    "label": "Wojcieszków",
    "lng": 22.31634
  },
  {
    "id": "109623",
    "text": "Wąwolnica, puławski, Lubelskie",
    "text_simple": "Wąwolnica",
    "text_gray": "puławski",
    "lat": 51.29365,
    "zoom": "12",
    "url": "wawolnica_109623",
    "districts": [],
    "label": "Wąwolnica",
    "lng": 22.14823
  },
  {
    "id": "58515",
    "text": "Włodawa, włodawski, Lubelskie",
    "text_simple": "Włodawa",
    "text_gray": "włodawski",
    "lat": 51.55029,
    "zoom": "12",
    "url": "wlodawa",
    "districts": [],
    "label": "Włodawa",
    "lng": 23.5528
  },
  {
    "id": "20507",
    "text": "Zamość, Lubelskie",
    "text_simple": "Zamość",
    "text_gray": "Lubelskie",
    "lat": 50.72105,
    "zoom": "12",
    "url": "zamosc",
    "districts": [],
    "label": "Zamość",
    "lng": 23.26006
  },
  {
    "id": "60061",
    "text": "Zwierzyniec, zamojski, Lubelskie",
    "text_simple": "Zwierzyniec",
    "text_gray": "zamojski",
    "lat": 50.61092,
    "zoom": "12",
    "url": "zwierzyniec_60061",
    "districts": [],
    "label": "Zwierzyniec",
    "lng": 22.97321
  },
  {
    "id": "4813",
    "text": "Ćmiłów, lubelski, Lubelskie",
    "text_simple": "Ćmiłów",
    "text_gray": "lubelski",
    "lat": 51.16124,
    "zoom": "12",
    "url": "cmilow",
    "districts": [],
    "label": "Ćmiłów",
    "lng": 22.58372
  },
  {
    "id": "100847",
    "text": "Łabunie, zamojski, Lubelskie",
    "text_simple": "Łabunie",
    "text_gray": "zamojski",
    "lat": 50.6521,
    "zoom": "12",
    "url": "labunie",
    "districts": [],
    "label": "Łabunie",
    "lng": 23.37062
  },
  {
    "id": "10413",
    "text": "Łaszczów, tomaszowski, Lubelskie",
    "text_simple": "Łaszczów",
    "text_gray": "tomaszowski",
    "lat": 50.52906,
    "zoom": "12",
    "url": "laszczow",
    "districts": [],
    "label": "Łaszczów",
    "lng": 23.71868
  },
  {
    "id": "137823",
    "text": "Łopiennik Górny, krasnostawski, Lubelskie",
    "text_simple": "Łopiennik Górny",
    "text_gray": "krasnostawski",
    "lat": 51.04243,
    "zoom": "12",
    "url": "lopiennik-gorny",
    "districts": [],
    "label": "Łopiennik Górny",
    "lng": 23.01939
  },
  {
    "id": "11099",
    "text": "Łuków, łukowski, Lubelskie",
    "text_simple": "Łuków",
    "text_gray": "łukowski",
    "lat": 51.93176,
    "zoom": "12",
    "url": "lukow",
    "districts": [],
    "label": "Łuków",
    "lng": 22.37845
  },
  {
    "id": "31463",
    "text": "Łęczna, łęczyński, Lubelskie",
    "text_simple": "Łęczna",
    "text_gray": "łęczyński",
    "lat": 51.30222,
    "zoom": "12",
    "url": "leczna",
    "districts": [],
    "label": "Łęczna",
    "lng": 22.87957
  },
  {
    "id": "56287",
    "text": "Świdnik, świdnicki, Lubelskie",
    "text_simple": "Świdnik",
    "text_gray": "świdnicki",
    "lat": 51.20013,
    "zoom": "12",
    "url": "swidnik",
    "districts": [],
    "label": "Świdnik",
    "lng": 22.69477
  },
  {
    "id": "41811",
    "text": "Żółkiewka, krasnostawski, Lubelskie",
    "text_simple": "Żółkiewka",
    "text_gray": "krasnostawski",
    "lat": 50.90912,
    "zoom": "12",
    "url": "zolkiewka",
    "districts": [],
    "label": "Żółkiewka",
    "lng": 22.83541
  },
  {
    "id": "113539",
    "text": "Babimost, zielonogórski, Lubuskie",
    "text_simple": "Babimost",
    "text_gray": "zielonogórski",
    "lat": 52.16372,
    "zoom": "12",
    "url": "babimost",
    "districts": [],
    "label": "Babimost",
    "lng": 15.83053
  },
  {
    "id": "2553",
    "text": "Baczyna, gorzowski, Lubuskie",
    "text_simple": "Baczyna",
    "text_gray": "gorzowski",
    "lat": 52.75459,
    "zoom": "12",
    "url": "baczyna_2553",
    "districts": [],
    "label": "Baczyna",
    "lng": 15.11559
  },
  {
    "id": "60589",
    "text": "Bobrowniki, nowosolski, Lubuskie",
    "text_simple": "Bobrowniki",
    "text_gray": "nowosolski",
    "lat": 51.86328,
    "zoom": "12",
    "url": "bobrowniki_60589",
    "districts": [],
    "label": "Bobrowniki",
    "lng": 15.73815
  },
  {
    "id": "42427",
    "text": "Bogdaniec, gorzowski, Lubuskie",
    "text_simple": "Bogdaniec",
    "text_gray": "gorzowski",
    "lat": 52.68865,
    "zoom": "12",
    "url": "bogdaniec",
    "districts": [],
    "label": "Bogdaniec",
    "lng": 15.07064
  },
  {
    "id": "130849",
    "text": "Borów Wielki, nowosolski, Lubuskie",
    "text_simple": "Borów Wielki",
    "text_gray": "nowosolski",
    "lat": 51.67892,
    "zoom": "12",
    "url": "borow-wielki",
    "districts": [],
    "label": "Borów Wielki",
    "lng": 15.6342
  },
  {
    "id": "42877",
    "text": "Brzozowiec, gorzowski, Lubuskie",
    "text_simple": "Brzozowiec",
    "text_gray": "gorzowski",
    "lat": 52.65412,
    "zoom": "12",
    "url": "brzozowiec_42877",
    "districts": [],
    "label": "Brzozowiec",
    "lng": 15.37441
  },
  {
    "id": "4203",
    "text": "Bytom Odrzański, nowosolski, Lubuskie",
    "text_simple": "Bytom Odrzański",
    "text_gray": "nowosolski",
    "lat": 51.73095,
    "zoom": "12",
    "url": "bytom-odrzanski",
    "districts": [],
    "label": "Bytom Odrzański",
    "lng": 15.82706
  },
  {
    "id": "4461",
    "text": "Chwalęcice, gorzowski, Lubuskie",
    "text_simple": "Chwalęcice",
    "text_gray": "gorzowski",
    "lat": 52.76792,
    "zoom": "12",
    "url": "chwalecice",
    "districts": [],
    "label": "Chwalęcice",
    "lng": 15.2082
  },
  {
    "id": "43663",
    "text": "Cybinka, słubicki, Lubuskie",
    "text_simple": "Cybinka",
    "text_gray": "słubicki",
    "lat": 52.19416,
    "zoom": "12",
    "url": "cybinka",
    "districts": [],
    "label": "Cybinka",
    "lng": 14.79715
  },
  {
    "id": "61957",
    "text": "Czerwieńsk, zielonogórski, Lubuskie",
    "text_simple": "Czerwieńsk",
    "text_gray": "zielonogórski",
    "lat": 52.01301,
    "zoom": "12",
    "url": "czerwiensk",
    "districts": [],
    "label": "Czerwieńsk",
    "lng": 15.42311
  },
  {
    "id": "132295",
    "text": "Deszczno, gorzowski, Lubuskie",
    "text_simple": "Deszczno",
    "text_gray": "gorzowski",
    "lat": 52.6696,
    "zoom": "12",
    "url": "deszczno",
    "districts": [],
    "label": "Deszczno",
    "lng": 15.31997
  },
  {
    "id": "62335",
    "text": "Dobiegniew, strzelecko-drezdenecki, Lubuskie",
    "text_simple": "Dobiegniew",
    "text_gray": "strzelecko-drezdenecki",
    "lat": 52.96982,
    "zoom": "12",
    "url": "dobiegniew",
    "districts": [],
    "label": "Dobiegniew",
    "lng": 15.75364
  },
  {
    "id": "62473",
    "text": "Drezdenko, strzelecko-drezdenecki, Lubuskie",
    "text_simple": "Drezdenko",
    "text_gray": "strzelecko-drezdenecki",
    "lat": 52.83655,
    "zoom": "12",
    "url": "drezdenko",
    "districts": [],
    "label": "Drezdenko",
    "lng": 15.83316
  },
  {
    "id": "132569",
    "text": "Droszków, zielonogórski, Lubuskie",
    "text_simple": "Droszków",
    "text_gray": "zielonogórski",
    "lat": 51.93104,
    "zoom": "12",
    "url": "droszkow_132569",
    "districts": [],
    "label": "Droszków",
    "lng": 15.66181
  },
  {
    "id": "132615",
    "text": "Drzonków, zielonogórski, Lubuskie",
    "text_simple": "Drzonków",
    "text_gray": "zielonogórski",
    "lat": 51.89132,
    "zoom": "12",
    "url": "drzonkow",
    "districts": [],
    "label": "Drzonków",
    "lng": 15.56991
  },
  {
    "id": "62209",
    "text": "Dąbrówka Wielkopolska, świebodziński, Lubuskie",
    "text_simple": "Dąbrówka Wielkopolska",
    "text_gray": "świebodziński",
    "lat": 52.27901,
    "zoom": "12",
    "url": "dabrowka-wielkopolska",
    "districts": [],
    "label": "Dąbrówka Wielkopolska",
    "lng": 15.8089
  },
  {
    "id": "6331",
    "text": "Gorzów Wielkopolski, Lubuskie",
    "text_simple": "Gorzów Wielkopolski",
    "text_gray": "Lubuskie",
    "lat": 52.72918,
    "zoom": "12",
    "url": "gorzow",
    "districts": [],
    "label": "Gorzów Wielkopolski",
    "lng": 15.24028
  },
  {
    "id": "6375",
    "text": "Gozdnica, żagański, Lubuskie",
    "text_simple": "Gozdnica",
    "text_gray": "żagański",
    "lat": 51.43689,
    "zoom": "12",
    "url": "gozdnica",
    "districts": [],
    "label": "Gozdnica",
    "lng": 15.09736
  },
  {
    "id": "27493",
    "text": "Grabik, żarski, Lubuskie",
    "text_simple": "Grabik",
    "text_gray": "żarski",
    "lat": 51.65369,
    "zoom": "12",
    "url": "grabik",
    "districts": [],
    "label": "Grabik",
    "lng": 15.11979
  },
  {
    "id": "85841",
    "text": "Gubin, krośnieński, Lubuskie",
    "text_simple": "Gubin",
    "text_gray": "krośnieński",
    "lat": 51.94796,
    "zoom": "12",
    "url": "gubin",
    "districts": [],
    "label": "Gubin",
    "lng": 14.73707
  },
  {
    "id": "27477",
    "text": "Górzyca, słubicki, Lubuskie",
    "text_simple": "Górzyca",
    "text_gray": "słubicki",
    "lat": 52.49387,
    "zoom": "12",
    "url": "gorzyca_27477",
    "districts": [],
    "label": "Górzyca",
    "lng": 14.65541
  },
  {
    "id": "81837",
    "text": "Iłowa, żagański, Lubuskie",
    "text_simple": "Iłowa",
    "text_gray": "żagański",
    "lat": 51.50268,
    "zoom": "12",
    "url": "ilowa_81837",
    "districts": [],
    "label": "Iłowa",
    "lng": 15.20213
  },
  {
    "id": "7023",
    "text": "Janczewo, gorzowski, Lubuskie",
    "text_simple": "Janczewo",
    "text_gray": "gorzowski",
    "lat": 52.75608,
    "zoom": "12",
    "url": "janczewo",
    "districts": [],
    "label": "Janczewo",
    "lng": 15.34848
  },
  {
    "id": "46149",
    "text": "Jasień, żarski, Lubuskie",
    "text_simple": "Jasień",
    "text_gray": "żarski",
    "lat": 51.75,
    "zoom": "12",
    "url": "jasien_46149",
    "districts": [],
    "label": "Jasień",
    "lng": 15.01667
  },
  {
    "id": "82217",
    "text": "Jenin, gorzowski, Lubuskie",
    "text_simple": "Jenin",
    "text_gray": "gorzowski",
    "lat": 52.69771,
    "zoom": "12",
    "url": "jenin",
    "districts": [],
    "label": "Jenin",
    "lng": 15.10425
  },
  {
    "id": "82545",
    "text": "Kargowa, zielonogórski, Lubuskie",
    "text_simple": "Kargowa",
    "text_gray": "zielonogórski",
    "lat": 52.07172,
    "zoom": "12",
    "url": "kargowa",
    "districts": [],
    "label": "Kargowa",
    "lng": 15.8712
  },
  {
    "id": "8529",
    "text": "Konin Żagański, żagański, Lubuskie",
    "text_simple": "Konin Żagański",
    "text_gray": "żagański",
    "lat": 51.54557,
    "zoom": "12",
    "url": "konin-zaganski",
    "districts": [],
    "label": "Konin Żagański",
    "lng": 15.20291
  },
  {
    "id": "87815",
    "text": "Konotop, gm. Kolsko, nowosolski, Lubuskie",
    "text_simple": "Konotop",
    "text_gray": "nowosolski",
    "lat": 51.88893,
    "zoom": "12",
    "url": "konotop_87815",
    "districts": [],
    "label": "Konotop",
    "lng": 16.05857
  },
  {
    "id": "135991",
    "text": "Kostrzyn nad Odrą, gorzowski, Lubuskie",
    "text_simple": "Kostrzyn nad Odrą",
    "text_gray": "gorzowski",
    "lat": 52.58761,
    "zoom": "12",
    "url": "kostrzyn-nad-odra",
    "districts": [],
    "label": "Kostrzyn nad Odrą",
    "lng": 14.65188
  },
  {
    "id": "117821",
    "text": "Kożuchów, nowosolski, Lubuskie",
    "text_simple": "Kożuchów",
    "text_gray": "nowosolski",
    "lat": 51.74403,
    "zoom": "12",
    "url": "kozuchow_117821",
    "districts": [],
    "label": "Kożuchów",
    "lng": 15.59733
  },
  {
    "id": "30485",
    "text": "Krosno Odrzańskie, krośnieński, Lubuskie",
    "text_simple": "Krosno Odrzańskie",
    "text_gray": "krośnieński",
    "lat": 52.05004,
    "zoom": "12",
    "url": "krosno-odrzanskie",
    "districts": [],
    "label": "Krosno Odrzańskie",
    "lng": 15.09726
  },
  {
    "id": "88797",
    "text": "Krzeszyce, sulęciński, Lubuskie",
    "text_simple": "Krzeszyce",
    "text_gray": "sulęciński",
    "lat": 52.58315,
    "zoom": "12",
    "url": "krzeszyce_88797",
    "districts": [],
    "label": "Krzeszyce",
    "lng": 15.00978
  },
  {
    "id": "84971",
    "text": "Kunowice, słubicki, Lubuskie",
    "text_simple": "Kunowice",
    "text_gray": "słubicki",
    "lat": 52.35049,
    "zoom": "12",
    "url": "kunowice",
    "districts": [],
    "label": "Kunowice",
    "lng": 14.6349
  },
  {
    "id": "87497",
    "text": "Kłodawa, gorzowski, Lubuskie",
    "text_simple": "Kłodawa",
    "text_gray": "gorzowski",
    "lat": 52.78592,
    "zoom": "12",
    "url": "klodawa_87497",
    "districts": [],
    "label": "Kłodawa",
    "lng": 15.21497
  },
  {
    "id": "31015",
    "text": "Lipinki Łużyckie, żarski, Lubuskie",
    "text_simple": "Lipinki Łużyckie",
    "text_gray": "żarski",
    "lat": 51.64062,
    "zoom": "12",
    "url": "lipinki-luzyckie",
    "districts": [],
    "label": "Lipinki Łużyckie",
    "lng": 15.00591
  },
  {
    "id": "49079",
    "text": "Lubiszyn, gorzowski, Lubuskie",
    "text_simple": "Lubiszyn",
    "text_gray": "gorzowski",
    "lat": 52.78202,
    "zoom": "12",
    "url": "lubiszyn",
    "districts": [],
    "label": "Lubiszyn",
    "lng": 14.95051
  },
  {
    "id": "100767",
    "text": "Lubniewice, sulęciński, Lubuskie",
    "text_simple": "Lubniewice",
    "text_gray": "sulęciński",
    "lat": 52.51478,
    "zoom": "12",
    "url": "lubniewice",
    "districts": [],
    "label": "Lubniewice",
    "lng": 15.25179
  },
  {
    "id": "119193",
    "text": "Lubrza, świebodziński, Lubuskie",
    "text_simple": "Lubrza",
    "text_gray": "świebodziński",
    "lat": 52.30447,
    "zoom": "12",
    "url": "lubrza",
    "districts": [],
    "label": "Lubrza",
    "lng": 15.44429
  },
  {
    "id": "137557",
    "text": "Lubsko, żarski, Lubuskie",
    "text_simple": "Lubsko",
    "text_gray": "żarski",
    "lat": 51.78453,
    "zoom": "12",
    "url": "lubsko",
    "districts": [],
    "label": "Lubsko",
    "lng": 14.97317
  },
  {
    "id": "32245",
    "text": "Marzenin, strzelecko-drezdenecki, Lubuskie",
    "text_simple": "Marzenin",
    "text_gray": "strzelecko-drezdenecki",
    "lat": 52.8027,
    "zoom": "12",
    "url": "marzenin",
    "districts": [],
    "label": "Marzenin",
    "lng": 15.88401
  },
  {
    "id": "90769",
    "text": "Maszewo, gorzowski, Lubuskie",
    "text_simple": "Maszewo",
    "text_gray": "gorzowski",
    "lat": 52.66277,
    "zoom": "12",
    "url": "maszewo_90769",
    "districts": [],
    "label": "Maszewo",
    "lng": 15.31137
  },
  {
    "id": "101773",
    "text": "Małomice, żagański, Lubuskie",
    "text_simple": "Małomice",
    "text_gray": "żagański",
    "lat": 51.5543,
    "zoom": "12",
    "url": "malomice",
    "districts": [],
    "label": "Małomice",
    "lng": 15.44712
  },
  {
    "id": "50705",
    "text": "Mirocin Górny, nowosolski, Lubuskie",
    "text_simple": "Mirocin Górny",
    "text_gray": "nowosolski",
    "lat": 51.75164,
    "zoom": "12",
    "url": "mirocin-gorny",
    "districts": [],
    "label": "Mirocin Górny",
    "lng": 15.51692
  },
  {
    "id": "11605",
    "text": "Międzyrzecz, międzyrzecki, Lubuskie",
    "text_simple": "Międzyrzecz",
    "text_gray": "międzyrzecki",
    "lat": 52.44649,
    "zoom": "12",
    "url": "miedzyrzecz",
    "districts": [],
    "label": "Międzyrzecz",
    "lng": 15.57687
  },
  {
    "id": "138999",
    "text": "Modrzyca, nowosolski, Lubuskie",
    "text_simple": "Modrzyca",
    "text_gray": "nowosolski",
    "lat": 51.83483,
    "zoom": "12",
    "url": "modrzyca",
    "districts": [],
    "label": "Modrzyca",
    "lng": 15.71613
  },
  {
    "id": "11949",
    "text": "Murzynowo, gm. Skwierzyna, międzyrzecki, Lubuskie",
    "text_simple": "Murzynowo",
    "text_gray": "międzyrzecki",
    "lat": 52.60095,
    "zoom": "12",
    "url": "murzynowo",
    "districts": [],
    "label": "Murzynowo",
    "lng": 15.49937
  },
  {
    "id": "91395",
    "text": "Niegosławice, żagański, Lubuskie",
    "text_simple": "Niegosławice",
    "text_gray": "żagański",
    "lat": 51.58734,
    "zoom": "12",
    "url": "niegoslawice_91395",
    "districts": [],
    "label": "Niegosławice",
    "lng": 15.71403
  },
  {
    "id": "33099",
    "text": "Nowa Sól, nowosolski, Lubuskie",
    "text_simple": "Nowa Sól",
    "text_gray": "nowosolski",
    "lat": 51.80328,
    "zoom": "12",
    "url": "nowa-sol",
    "districts": [],
    "label": "Nowa Sól",
    "lng": 15.7215
  },